Addresse,code_postale,departement,Latitude,Longitude,Distance,DurationPoliceMin,MinDistGar,MoyDistGar,train,rer,metro,tramway,Population2017,Densite,Superficie2017,NomMenage,NombreTotalLogement,TauxActive15_64,TauxChomage15_64
77145,77145,77,49.0673457,3.0322264,16.170681702706467,0.3927777777777778,3.5213006939923326,60.32965175353269,1,0,0,0,912.0,47.6,19.2,309.0,356.0,80.1,12.0
78120,78120,78,48.6386217,1.8379762,1.5131964890297962,0.12333333333333334,0.7251425782783972,48.51231582807337,1,0,0,0,9734.666666666666,281.0333333333333,32.96666666666667,4374.333333333333,4800.333333333333,77.63333333333334,8.8
78950,78950,78,48.7778873,1.6754046000000002,18.06783231630698,0.37027777777777776,5.710544982587689,53.575319927073245,1,0,0,0,2463.0,107.0,23.0,939.0,1102.0,76.2,5.7
91490,91490,91,48.4132088,2.4724487,21.86835049067407,0.43916666666666665,6.243510222567075,53.15294382922588,0,1,0,0,1612.8,114.17999999999999,13.62,690.0,808.2,77.52,7.8
95640,95640,95,49.1463963,1.9763970000000002,14.416980308077244,0.36527777777777776,3.2267301696046986,47.15088401917612,1,0,0,0,728.875,113.2,6.000000000000001,281.875,313.75,78.62499999999999,7.737500000000001
Abbéville-la-Rivière 91150,91150,91,48.3463691,2.16588,10.133372188783914,0.23027777777777778,8.453762515333457,60.61003544612689,1,0,0,0,2267.6,86.47333333333333,12.033333333333335,905.9333333333333,1018.4666666666667,80.00666666666667,7.959999999999998
Ableiges 95450,95450,95,49.0901646,1.9812325000000002,8.417462400900954,0.2633333333333333,1.312672488986474,42.650902906334096,1,0,0,0,719.6428571428571,101.04285714285717,7.885714285714285,279.14285714285717,305.07142857142856,78.22142857142858,8.014285714285714
Ablis 78660,78660,78,48.517153,1.8368758,14.626063194548117,0.2836111111111111,9.047794805964962,56.249523118428684,1,0,0,0,922.5714285714286,47.27142857142858,16.9,338.0,378.42857142857144,79.62857142857142,7.028571428571429
Ablon-sur-Seine 94480,94480,94,48.7247582,2.421509,2.2544532674110673,0.14805555555555555,0.16710531323610378,25.557085680091355,0,1,0,0,5785.0,5211.7,1.1,2357.0,2580.0,79.1,11.6
Achères 78260 (Centre-ville - Cité de la Barricade),78260,78,48.9612,2.0688,4.016793602404162,0.17333333333333334,1.2392253531630744,30.813815874002426,1,1,0,0,21017.0,2226.4,9.4,8540.0,8914.0,79.3,13.3
Achères 78260 (Champs de Villars - Le Magasin - Gare - Petite-Arche),78260,78,48.9612,2.0688,4.016793602404162,0.17333333333333334,1.2392253531630744,30.813815874002426,1,1,0,0,21017.0,2226.4,9.4,8540.0,8914.0,79.3,13.3
Achères 78260 (Chêne Feuillu),78260,78,48.949571,2.0686077000000003,3.1388541835359587,0.15861111111111112,1.9365555946907897,30.33932239766452,0,1,0,0,21017.0,2226.4,9.4,8540.0,8914.0,79.3,13.3
Achères 78260 (La Porte-de-Seine - La Croix d'Achères - Les Communes),78260,78,48.9612,2.0688,4.016793602404162,0.17333333333333334,1.2392253531630744,30.813815874002426,1,1,0,0,21017.0,2226.4,9.4,8540.0,8914.0,79.3,13.3
Achères 78260 (Montsouris),78260,78,48.9586224,2.0728059,4.148286497191886,0.17194444444444446,1.3869718776719364,30.50585093111256,1,1,0,0,21017.0,2226.4,9.4,8540.0,8914.0,79.3,13.3
Adainville 78113,78113,78,48.7223394,1.6514131999999997,15.116732142733635,0.3630555555555556,8.942741993109523,56.43633198949681,1,0,0,0,494.3333333333333,54.70000000000001,7.833333333333332,200.33333333333334,268.8333333333333,78.23333333333333,7.266666666666666
Aigremont 78240,78240,78,48.9038131,2.0195357,3.092613070945283,0.16055555555555556,3.635835664041105,31.627460083289293,1,1,0,0,3359.0,538.6,5.45,1326.5,1453.0,70.75,9.0
Aincourt 95510,95510,95,49.0719037,1.7719759999999998,19.366990450193132,0.5363888888888889,9.915661143607922,52.54224975773508,1,0,0,0,469.14285714285717,80.75714285714285,6.785714285714286,197.71428571428572,250.0,77.45714285714287,10.471428571428573
Alfortville 94140,94140,94,48.8051624,2.4197113,0.49045121669772107,0.04638888888888889,0.6060122892830039,21.107359273569504,0,1,0,0,43881.0,11956.7,3.7,20167.0,22076.0,78.9,14.9
Alfortville 94140 (Mairie - Gare),94140,94,48.8018729,2.4261337000000003,0.8620793492819868,0.10194444444444445,0.032270388686227336,21.417718733978795,0,1,0,0,43881.0,11956.7,3.7,20167.0,22076.0,78.9,14.9
Alfortville 94140 (Zola Carnot - Alouettes - Val de Seine),94140,94,48.8058,2.4204,0.5428174583077745,0.09583333333333334,0.611228168091529,21.101421242979715,0,1,0,0,43881.0,11956.7,3.7,20167.0,22076.0,78.9,14.9
Allainville 78660,78660,78,48.4568654,1.8959608,21.955916666710085,0.39222222222222225,8.705001101514352,58.24426073927629,1,0,0,0,922.5714285714286,47.27142857142858,16.9,338.0,378.42857142857144,79.62857142857142,7.028571428571429
Amenucourt 95510,95510,95,49.10672879999999,1.6432238999999997,29.509627769678325,0.58,8.800630239141368,62.03325268437835,1,0,0,0,469.14285714285717,80.75714285714285,6.785714285714286,197.71428571428572,250.0,77.45714285714287,10.471428571428573
Andilly 95580,95580,95,49.005362,2.2988964,4.072824279872213,0.2436111111111111,2.9199260219759657,26.327486629704534,1,0,0,0,2738.5,2484.5,1.7000000000000002,1054.0,1181.0,76.15,9.15
Andrezel 77390,77390,77,48.6112435,2.8135847000000003,13.606278369509337,0.3372222222222222,3.781840794061722,48.340197690795456,1,0,0,0,1306.923076923077,171.4538461538462,8.330769230769231,493.0,544.3076923076923,79.67692307692307,7.069230769230769
Andrésy 78570 (Charvaux),78570,78,48.9889911,2.050944,3.1702616668286487,0.13444444444444445,0.6820915800317058,33.012268273458,1,0,0,0,11849.0,2521.75,5.1,4426.0,4743.0,77.15,14.25
Andrésy 78570 (Denouval),78570,78,48.96467929999999,2.0444471,4.221643030077016,0.15666666666666668,1.1778051618634402,32.179882840970315,1,0,0,0,11849.0,2521.75,5.1,4426.0,4743.0,77.15,14.25
Andrésy 78570 (Gare - Valences - Marottes - Ponceau),78570,78,48.9761,2.0326,4.87037985251475,0.19777777777777777,0.738160196788096,33.29040859422758,1,0,0,0,11849.0,2521.75,5.1,4426.0,4743.0,77.15,14.25
Andrésy 78570 (L'Aiglon - Rive Gauche - Fin d'Oise - Pont de Conflans),78570,78,48.9761,2.0326,4.87037985251475,0.19777777777777777,0.738160196788096,33.29040859422758,1,0,0,0,11849.0,2521.75,5.1,4426.0,4743.0,77.15,14.25
Andrésy 78570 (Village - Les Iles - Renardière),78570,78,48.9761,2.0326,4.87037985251475,0.19777777777777777,0.738160196788096,33.29040859422758,1,0,0,0,11849.0,2521.75,5.1,4426.0,4743.0,77.15,14.25
Angerville 91670,91670,91,48.3106704,1.9979775,18.711993918886677,0.2891666666666667,0.41733408071126377,67.79606265613995,1,0,0,0,4270.0,165.3,25.8,1623.0,1864.0,78.3,12.2
Angervilliers 91470,91470,91,48.59263,2.06433,12.780366326179717,0.3686111111111111,6.32983551950938,40.93522301363984,0,1,0,0,2542.5,232.58333333333337,9.516666666666666,1008.0,1080.5,76.99999999999999,5.3999999999999995
Annet-sur-Marne 77410,77410,77,48.9263555,2.7189327000000003,5.68862725557907,0.28444444444444444,5.002124118182711,36.08627248742946,1,0,0,0,2232.4545454545455,210.71818181818182,8.618181818181819,854.7272727272727,911.2727272727273,79.42727272727272,6.945454545454544
Antony 92160,92160,92,48.753554,2.2959423,0.791844186837754,0.08194444444444444,0.4019584601033372,23.003390402241337,0,1,0,0,62570.0,6545.0,9.6,26734.0,28841.0,77.4,9.1
Antony 92160 (Baconnets),92160,92,48.7396044,2.2874034,2.4506288146087734,0.17277777777777778,0.021212552552049097,24.015152968400443,0,1,0,0,62570.0,6545.0,9.6,26734.0,28841.0,77.4,9.1
Antony 92160 (Centre-ville),92160,92,48.753554,2.2959423,0.791844186837754,0.08194444444444444,0.4019584601033372,23.003390402241337,0,1,0,0,62570.0,6545.0,9.6,26734.0,28841.0,77.4,9.1
Antony 92160 (Croix de Berny),92160,92,48.762474,2.3046259,0.5604176660059215,0.06027777777777778,0.091588077690855,22.35784388494577,0,1,0,0,62570.0,6545.0,9.6,26734.0,28841.0,77.4,9.1
Antony 92160 (Rabats),92160,92,48.7426365,2.3096724,2.1868382705645417,0.17444444444444446,0.630890974820943,23.58511697893208,0,1,0,0,62570.0,6545.0,9.6,26734.0,28841.0,77.4,9.1
Arbonne-la-Forêt 77630,77630,77,48.4123357,2.5667447,9.935699485762893,0.20194444444444445,11.631338306961243,54.80337519619,1,0,0,0,960.3333333333334,125.86666666666666,9.4,408.6666666666667,546.6666666666666,74.43333333333332,10.566666666666666
Arcueil 94110 (Barbusse),94110,94,48.8077519,2.3368387000000004,0.682543747427589,0.09888888888888889,0.19227524760360332,19.77414756406605,0,1,0,0,21501.0,9227.9,2.3,9866.0,10726.0,75.1,14.3
Arcueil 94110 (Joliot Curie),94110,94,48.7999,2.3326,1.1630174445708845,0.0913888888888889,0.34649495963162724,20.14237727328214,0,1,0,0,21501.0,9227.9,2.3,9866.0,10726.0,75.1,14.3
Arcueil 94110 (Jules Ferry),94110,94,48.8009605,2.330243,1.254368777286061,0.125,0.27717625153728837,20.095525676192793,0,1,0,0,21501.0,9227.9,2.3,9866.0,10726.0,75.1,14.3
Arcueil 94110 (Laplace),94110,94,48.8064996,2.3366502,0.665894803061148,0.06638888888888889,0.2614847248185225,19.8305974747933,0,1,0,0,21501.0,9227.9,2.3,9866.0,10726.0,75.1,14.3
Arcueil 94110 (Plateau-Kergomard),94110,94,48.7999,2.3326,1.1630174445708845,0.0913888888888889,0.34649495963162724,20.14237727328214,0,1,0,0,21501.0,9227.9,2.3,9866.0,10726.0,75.1,14.3
Argenteuil 95100,95100,95,48.94790689999999,2.2481797,0.606941312223927,0.11916666666666667,0.7224401483878193,23.102632228893288,1,0,0,0,110210.0,6400.1,17.2,41636.0,45042.0,74.5,17.7
Argenteuil 95100 (Centre-ville),95100,95,48.94790689999999,2.2481797,0.606941312223927,0.11916666666666667,0.7224401483878193,23.102632228893288,1,0,0,0,110210.0,6400.1,17.2,41636.0,45042.0,74.5,17.7
Argenteuil 95100 (Les Coteaux),95100,95,48.9595205,2.2388359,2.0062008989394897,0.125,1.1707321319474902,24.045458161471444,1,0,0,0,110210.0,6400.1,17.2,41636.0,45042.0,74.5,17.7
Argenteuil 95100 (Orgemont - Volembert),95100,95,48.9569895,2.2832754,2.251448318298598,0.15527777777777776,0.7593194443572195,22.922394352196466,0,1,0,0,110210.0,6400.1,17.2,41636.0,45042.0,74.5,17.7
Argenteuil 95100 (Val Notre Dame),95100,95,48.941516,2.207981,1.4861982492283008,0.08388888888888889,1.9559125000956268,23.971992969525367,1,0,0,0,110210.0,6400.1,17.2,41636.0,45042.0,74.5,17.7
Argenteuil 95100 (Val Sud),95100,95,48.94681420000001,2.2385848,1.2377596766982115,0.12055555555555555,0.6711266208939654,23.298065454436497,1,0,0,0,110210.0,6400.1,17.2,41636.0,45042.0,74.5,17.7
Armentières-en-Brie 77440,77440,77,48.97866240000001,3.0216469,9.871377542773345,0.31722222222222224,2.192891639919208,56.30224541258577,1,0,0,0,908.2307692307693,120.54615384615384,9.607692307692307,341.0769230769231,384.9230769230769,78.73846153846155,11.615384615384615
Arnouville 95400,95400,95,48.9892126,2.4202824,1.7357062404008585,0.0975,0.5894822138955361,25.819513595418822,0,1,0,0,20951.5,4400.35,5.05,7218.5,7793.0,70.95,19.15
Arnouville 95400 (Centre-ville),95400,95,48.9892126,2.4202824,1.7357062404008585,0.0975,0.5894822138955361,25.819513595418822,0,1,0,0,20951.5,4400.35,5.05,7218.5,7793.0,70.95,19.15
Arnouville 95400 (Claude Demange),95400,95,48.9833,2.4167,1.8252341227765552,0.16194444444444445,1.165762151618682,25.30385623385597,0,1,0,0,20951.5,4400.35,5.05,7218.5,7793.0,70.95,19.15
Arnouville 95400 (Cottage - Beauséjour),95400,95,48.9867689,2.4205692,1.9720704584924968,0.11805555555555555,0.8427782240877949,25.643526028942258,0,1,0,0,20951.5,4400.35,5.05,7218.5,7793.0,70.95,19.15
Arnouville 95400 (Robert Schuman - Stade),95400,95,48.9833,2.4167,1.8252341227765552,0.16194444444444445,1.165762151618682,25.30385623385597,0,1,0,0,20951.5,4400.35,5.05,7218.5,7793.0,70.95,19.15
Arnouville 95400 (Vieux Pays - Le Petit Parc),95400,95,48.9833,2.4167,1.8252341227765552,0.16194444444444445,1.165762151618682,25.30385623385597,0,1,0,0,20951.5,4400.35,5.05,7218.5,7793.0,70.95,19.15
Arpajon 91290,91290,91,48.5902899,2.2477303,0.3374225390526745,0.04388888888888889,0.6842190070530461,36.320658423205586,0,1,0,0,7237.5,2615.2999999999997,3.45,3197.5,3510.5,78.0,10.55
Asnières-sur-Oise 95270,95270,95,49.133908899999994,2.3541272999999996,13.590854015303412,0.35694444444444445,2.180963979975431,37.88043570967839,1,0,0,0,1927.75,278.60833333333335,7.425,761.8333333333334,842.9166666666666,78.55,8.875000000000002
Asnières-sur-Seine 92600 (Bécon - Bourguignons),92600,92,48.9167,2.2833,1.1021119432655697,0.14777777777777779,0.7448806221655867,20.63714685196496,0,0,1,0,85191.0,17674.5,4.8,37637.0,42925.0,79.6,11.4
Asnières-sur-Seine 92600 (Centre-ville),92600,92,48.9089508,2.290992,0.38010014709058715,0.021944444444444444,0.6552980250563517,20.14644902765115,1,0,0,0,85191.0,17674.5,4.8,37637.0,42925.0,79.6,11.4
Asnières-sur-Seine 92600 (Coubertin),92600,92,48.92797460000001,2.2842434,0.6924149981418662,0.08611111111111111,0.3094677802010416,21.177107156533644,0,0,1,1,85191.0,17674.5,4.8,37637.0,42925.0,79.6,11.4
Asnières-sur-Seine 92600 (Gresillons - Voltaire),92600,92,48.9126973,2.2961891,0.944550850786353,0.065,0.4243710036042146,20.222914690351057,0,0,1,0,85191.0,17674.5,4.8,37637.0,42925.0,79.6,11.4
Athis-Mons 91200 (Centre-ville),91200,91,48.710345,2.3839322,0.24537915063279986,0.034722222222222224,1.0094142301249307,25.996249354655294,0,0,0,1,34347.0,4012.5,8.6,13535.0,14426.0,75.7,9.4
Athis-Mons 91200 (Le Noyer Renard),91200,91,48.7047676,2.3633442,1.4626872420792119,0.08416666666666667,1.247738052537339,26.2436298190759,0,0,0,1,34347.0,4012.5,8.6,13535.0,14426.0,75.7,9.4
Athis-Mons 91200 (Mons - Plaine Basse),91200,91,48.7058874,2.4001304,1.3294375941954222,0.07944444444444444,0.7927751522526905,26.517960619045997,0,1,0,0,34347.0,4012.5,8.6,13535.0,14426.0,75.7,9.4
Athis-Mons 91200 (Plateau - Pyramide),91200,91,48.7052,2.3915,0.7527453468480282,0.07166666666666667,1.2165029575459965,26.45707710459926,0,1,0,0,34347.0,4012.5,8.6,13535.0,14426.0,75.7,9.4
Athis-Mons 91200 (Val d'Athis),91200,91,48.7006701,2.3879511000000004,0.9463940796810842,0.09333333333333334,1.2951654043380092,26.751018678573075,0,1,0,0,34347.0,4012.5,8.6,13535.0,14426.0,75.7,9.4
Attainville 95570,95570,95,49.0578463,2.3446221,7.691994945664934,0.25527777777777777,1.843047046762993,30.722234182263602,1,0,0,0,2538.0,743.4499999999999,3.775,916.75,962.75,76.525,8.05
Aubergenville 78410,78410,78,48.9591392,1.8554319,5.911253804302401,0.18583333333333332,1.5361911453564125,42.68984671459062,1,0,0,0,3602.2,584.1,5.720000000000001,1455.8,1568.2,78.2,10.06
Aubervilliers 93300 (Centre-ville - Victor Hugo),93300,93,48.9167,2.3833,0.3848135524325956,0.03805555555555556,0.8807523356794976,20.463429914308783,0,1,0,0,86375.0,14995.7,5.8,32478.0,34624.0,70.3,23.1
Aubervilliers 93300 (Landy-Plaine - Marcreus - Pressensé),93300,93,48.9167,2.3833,0.3848135524325956,0.03805555555555556,0.8807523356794976,20.463429914308783,0,1,0,0,86375.0,14995.7,5.8,32478.0,34624.0,70.3,23.1
Aubervilliers 93300 (Maladerie - Emile Dubois),93300,93,48.9167,2.3833,0.3848135524325956,0.03805555555555556,0.8807523356794976,20.463429914308783,0,1,0,0,86375.0,14995.7,5.8,32478.0,34624.0,70.3,23.1
Auffargis 78610,78610,78,48.6998475,1.8861417,7.342240906548381,0.19416666666666665,2.3012072994926784,42.81940071129946,1,0,0,0,2832.0,179.575,21.175,1205.75,1336.0,77.6,7.324999999999999
Aufferville 77570,77570,77,48.2147269,2.6098629,9.102163822351532,0.19527777777777777,7.181748923924054,75.02778623072194,1,0,0,0,763.2857142857143,41.08571428571429,16.02857142857143,315.42857142857144,409.42857142857144,78.35714285714286,10.014285714285714
Auffreville-Brasseuil 78930,78930,78,48.9548027,1.7102362000000002,4.090802430003191,0.21055555555555555,3.229192713582827,51.789881197891894,1,0,0,0,828.1428571428571,173.8857142857143,4.871428571428572,330.14285714285717,371.14285714285717,77.6857142857143,7.171428571428571
Aulnay-sous-Bois 93600,93600,93,48.934231,2.499789,0.7816563961575915,0.06833333333333333,0.386479548323822,24.949705288969042,1,1,0,1,85740.0,5292.6,16.2,29750.0,31560.0,70.7,19.3
Aulnay-sous-Bois 93600 (Balagny - La Plaine - Tour Eiffel),93600,93,48.9381,2.494,1.2970074847010087,0.10861111111111112,0.6658681627850401,24.898089266821962,1,1,0,1,85740.0,5292.6,16.2,29750.0,31560.0,70.7,19.3
Aulnay-sous-Bois 93600 (Chanteloup - Pont de l'Union),93600,93,48.9381,2.494,1.2970074847010087,0.10861111111111112,0.6658681627850401,24.898089266821962,1,1,0,1,85740.0,5292.6,16.2,29750.0,31560.0,70.7,19.3
Aulnay-sous-Bois 93600 (Mairie - Paul Bert),93600,93,48.93622420000001,2.4901249,1.251053571700694,0.1388888888888889,0.5971036519959595,24.653014273545722,1,1,0,1,85740.0,5292.6,16.2,29750.0,31560.0,70.7,19.3
Aulnay-sous-Bois 93600 (Merisiers - Etangs),93600,93,48.9381,2.494,1.2970074847010087,0.10861111111111112,0.6658681627850401,24.898089266821962,1,1,0,1,85740.0,5292.6,16.2,29750.0,31560.0,70.7,19.3
Aulnay-sous-Bois 93600 (Nonneville),93600,93,48.9244135,2.4898459,0.829830019935556,0.07861111111111112,0.9599530633254534,24.109095216296502,1,1,0,1,85740.0,5292.6,16.2,29750.0,31560.0,70.7,19.3
Aulnay-sous-Bois 93600 (Ouest Edgar Degas),93600,93,48.9381,2.494,1.2970074847010087,0.10861111111111112,0.6658681627850401,24.898089266821962,1,1,0,1,85740.0,5292.6,16.2,29750.0,31560.0,70.7,19.3
Aulnay-sous-Bois 93600 (Prevoyant - Le Parc),93600,93,48.9381,2.494,1.2970074847010087,0.10861111111111112,0.6658681627850401,24.898089266821962,1,1,0,1,85740.0,5292.6,16.2,29750.0,31560.0,70.7,19.3
Aulnay-sous-Bois 93600 (Savigny - Mitry),93600,93,48.9381,2.494,1.2970074847010087,0.10861111111111112,0.6658681627850401,24.898089266821962,1,1,0,1,85740.0,5292.6,16.2,29750.0,31560.0,70.7,19.3
Aulnay-sous-Bois 93600 (Vieux Pays - Roserai - Bourg),93600,93,48.9381,2.494,1.2970074847010087,0.10861111111111112,0.6658681627850401,24.898089266821962,1,1,0,1,85740.0,5292.6,16.2,29750.0,31560.0,70.7,19.3
Aulnay-sur-Mauldre 78126,78126,78,48.92968629999999,1.8411487,9.127611572887128,0.31277777777777777,1.005604439185733,42.81018297799289,1,0,0,0,1140.0,511.2,2.2,455.0,515.0,78.8,8.4
Auteuil 78770,78770,78,48.84148029999999,1.8219502,10.609483118362823,0.28555555555555556,4.342223401748199,43.276857376109724,1,0,0,0,774.5714285714286,144.21428571428572,5.357142857142857,297.85714285714283,328.7142857142857,78.42857142857143,6.728571428571429
Autouillet 78770,78770,78,48.847801,1.8029969,12.132810797985597,0.3194444444444444,5.0056650460440935,44.47883238015683,1,0,0,0,774.5714285714286,144.21428571428572,5.357142857142857,297.85714285714283,328.7142857142857,78.42857142857143,6.728571428571429
Auvernaux 91830,91830,91,48.5278488,2.4926321,9.209172428050925,0.2966666666666667,3.9046797555561845,42.70463141667461,0,1,0,0,2594.5,237.55,8.95,1006.0,1102.0,79.94999999999999,6.7
Auvers-Saint-Georges 91580,91580,91,48.4914374,2.2197404,7.278921084836651,0.18472222222222223,1.8756638400617758,45.69911428526015,0,1,0,0,1621.1666666666667,131.28333333333333,10.133333333333333,668.0,726.8333333333334,78.18333333333334,9.249999999999998
Auvers-sur-Oise 95430,95430,95,49.0701875,2.1718687,6.871889060423768,0.3011111111111111,0.2528822925032129,34.02528163027507,1,0,0,0,4590.0,709.0999999999999,7.6499999999999995,1867.5,2017.5,77.85,9.05
Avon 77210 (Bercelle - Gare),77210,77,48.4164685,2.7240546,2.0679388944120918,0.1711111111111111,0.19324038119426407,58.72932054675951,1,0,0,0,8097.0,2017.05,4.75,3817.5,4384.5,75.85,10.45
Avon 77210 (Butte Montceau),77210,77,48.4117517,2.7372456,2.7760600475924107,0.24305555555555555,0.9372326966550536,59.584974362300976,1,0,0,0,8097.0,2017.05,4.75,3817.5,4384.5,75.85,10.45
Avon 77210 (Centre-ville - Village),77210,77,48.40488670000001,2.7207225,1.4949306208067454,0.15805555555555556,1.3512382636623954,59.627597518996566,1,0,0,0,8097.0,2017.05,4.75,3817.5,4384.5,75.85,10.45
Avon 77210 (Terrasses - Valvins),77210,77,48.4022,2.7202,1.5185316859855391,0.1825,1.6474426954417578,59.846377191370266,1,0,0,0,8097.0,2017.05,4.75,3817.5,4384.5,75.85,10.45
Avon 77210 (Vallée),77210,77,48.4099162,2.725151,1.857733899823316,0.17055555555555554,0.7270842460009399,59.33450756148536,1,0,0,0,8097.0,2017.05,4.75,3817.5,4384.5,75.85,10.45
Avrainville 91630,91630,91,48.5623782,2.247154,2.85294409765318,0.16083333333333333,2.6657341922067563,38.79426525630204,0,1,0,0,2119.6,337.09999999999997,6.640000000000001,813.8,870.8,78.78,6.5
Bagneaux-sur-Loing 77167,77167,77,48.2314677,2.7042711,4.009065093610469,0.15472222222222223,0.21469277218382388,75.36808646675252,1,0,0,0,672.4,101.36,9.819999999999999,290.6,333.2,76.6,10.38
Bagneux 92220 (Centre-ville),92220,92,48.797668,2.30882,0.4486022733763114,0.04722222222222222,1.094828705474108,20.380151579031104,0,1,0,0,40918.0,9765.6,4.2,17011.0,18024.0,77.1,15.8
Bagneux 92220 (Champ des Oiseaux),92220,92,48.7956,2.3080000000000003,0.2144656521894507,0.03111111111111111,1.0733657205903722,20.48900361331139,0,1,0,0,40918.0,9765.6,4.2,17011.0,18024.0,77.1,15.8
Bagneux 92220 (La Rapie),92220,92,48.7956,2.3080000000000003,0.2144656521894507,0.03111111111111111,1.0733657205903722,20.48900361331139,0,1,0,0,40918.0,9765.6,4.2,17011.0,18024.0,77.1,15.8
Bagneux 92220 (Pierre Plate - Prunier Hardy - Anatole France),92220,92,48.7956,2.3080000000000003,0.2144656521894507,0.03111111111111111,1.0733657205903722,20.48900361331139,0,1,0,0,40918.0,9765.6,4.2,17011.0,18024.0,77.1,15.8
Bagneux 92220 (Schweitzer - Barbanson - Paul Vaillant Couturier),92220,92,48.7956,2.3080000000000003,0.2144656521894507,0.03111111111111111,1.0733657205903722,20.48900361331139,0,1,0,0,40918.0,9765.6,4.2,17011.0,18024.0,77.1,15.8
Bagneux 92220 (Tertres - Cuverons - Brugnauts),92220,92,48.7956,2.3080000000000003,0.2144656521894507,0.03111111111111111,1.0733657205903722,20.48900361331139,0,1,0,0,40918.0,9765.6,4.2,17011.0,18024.0,77.1,15.8
Bagnolet 93170,93170,93,48.8688199,2.4173658,1.5183337182679302,0.14916666666666667,0.3906021923180095,19.89556034941209,0,0,1,0,35674.0,13880.9,2.6,14671.0,15968.0,74.4,17.5
Bagnolet 93170 (Centre Sud),93170,93,48.8639559,2.4198754,1.6541871547811144,0.18444444444444444,0.27911324755231504,19.946937249247906,0,0,1,0,35674.0,13880.9,2.6,14671.0,15968.0,74.4,17.5
Bagnolet 93170 (Centre-ville),93170,93,48.8680748,2.4191391,1.6199413458874665,0.14444444444444443,0.3534205648944853,19.947401939186225,0,0,1,0,35674.0,13880.9,2.6,14671.0,15968.0,74.4,17.5
Bagnolet 93170 (La Dhuys),93170,93,48.8728112,2.4165411,1.07050841783604,0.11611111111111111,0.5859415205689116,19.910202922711758,0,0,0,1,35674.0,13880.9,2.6,14671.0,15968.0,74.4,17.5
Bagnolet 93170 (Le Plateau),93170,93,48.8766714,2.4307333,1.3171801996275492,0.14166666666666666,1.1005243449579747,20.4398359369387,0,0,1,0,35674.0,13880.9,2.6,14671.0,15968.0,74.4,17.5
Bagnolet 93170 (Les Coutures),93170,93,48.8593943,2.4189958,1.8009404671171656,0.1922222222222222,0.5019859515936439,19.908244447632008,0,0,1,0,35674.0,13880.9,2.6,14671.0,15968.0,74.4,17.5
Bagnolet 93170 (Les Malassis),93170,93,48.8726008,2.4248853,1.3073523644331726,0.13833333333333334,1.0068096541288822,20.18417940188265,0,0,1,0,35674.0,13880.9,2.6,14671.0,15968.0,74.4,17.5
Bailly 78870,78870,78,48.838001,2.0802293,3.555662467208384,0.13277777777777777,1.4369531610974926,27.88629078506984,1,0,0,0,3721.0,569.8,6.5,1532.0,1663.0,75.6,7.2
Bailly-Romainvilliers 77700,77700,77,48.8468159,2.8212923,3.01964307519037,0.16055555555555556,3.639574380063566,41.33271373987872,0,1,0,0,6740.6,1145.92,6.4399999999999995,2620.4,3084.8,81.0,8.260000000000002
Ballainvilliers 91160,91160,91,48.6752123,2.2944783,2.268759019873172,0.14194444444444446,2.0662458325957656,28.67713454495991,0,1,0,0,8612.25,1761.6499999999999,5.05,3403.5,3726.75,77.75,9.45
Ballancourt-sur-Essonne 91610,91610,91,48.5262129,2.3858373,11.404709485971395,0.43694444444444447,1.2751755400557285,41.58586697560381,0,1,0,0,7597.0,672.3,11.3,3131.0,3372.0,78.7,9.1
Balloy 77118,77118,77,48.3981657,3.1467331,14.168757769908384,0.3258333333333333,8.308099943543624,79.37051798103305,1,0,0,0,451.0,28.2,14.5,189.0,244.66666666666666,77.73333333333333,12.266666666666666
Banthelu 95420,95420,95,49.12663010000001,1.8148772000000002,19.385392279889615,0.39666666666666667,9.765310541665524,53.4102824302667,1,0,0,0,780.2307692307693,77.71538461538461,8.061538461538463,317.46153846153845,359.7692307692308,78.75384615384615,7.446153846153846
Barbizon 77630,77630,77,48.4447386,2.6064391,8.176951006781433,0.2386111111111111,7.196766199304306,52.731478844884975,1,0,0,0,960.3333333333334,125.86666666666666,9.4,408.6666666666667,546.6666666666666,74.43333333333332,10.566666666666666
Baulne 91590,91590,91,48.4931951,2.3598564,13.540405010100267,0.4008333333333333,1.0902392354697015,44.60816430778668,0,1,0,0,1641.0,235.4625,8.0875,659.0,728.625,79.82499999999999,7.3375
Bazainville 78550,78550,78,48.804351200000006,1.668678,20.756884420301464,0.44333333333333336,2.7889150495099915,53.6371363885195,1,0,0,0,1376.1666666666667,144.18333333333334,8.566666666666666,558.1666666666666,641.6666666666666,76.51666666666668,7.983333333333333
Bazemont 78580,78580,78,48.92834660000001,1.8649214,8.411237439341992,0.30583333333333335,2.127879632730155,41.30117610051546,1,0,0,0,1898.6,171.6,9.1,746.4,836.2,75.4,7.919999999999999
Bazoches-lès-Bray 77118,77118,77,48.39845800000001,3.1884553,17.258420147102377,0.3572222222222222,9.300196627956026,81.63811325551758,1,0,0,0,451.0,28.2,14.5,189.0,244.66666666666666,77.73333333333333,12.266666666666666
Bazoches-sur-Guyonne 78490,78490,78,48.7778977,1.8601198,6.658605649492006,0.26555555555555554,4.223251680608502,41.7263309192252,1,0,0,0,1023.7,167.53,7.8,402.9,471.9,74.7,6.859999999999999
Beauchamp 95250,95250,95,49.0115876,2.1993602,2.7743827318799497,0.1363888888888889,0.4802953381118649,28.656186225932533,1,1,0,0,8683.0,2875.2,3.0,3549.0,3781.0,76.6,11.3
Beauchery-Saint-Martin 77560,77560,77,48.61625720000001,3.4029092000000003,9.688575907734524,0.19444444444444445,9.999055438421259,84.31264845698703,1,0,0,0,354.3,18.99,18.77,133.6,165.0,75.10999999999999,10.33
Beaumont-du-Gâtinais 77890,77890,77,48.1365394,2.4763389,22.299814894027456,0.3775,18.335864576095418,81.4238606759916,0,1,0,0,308.6666666666667,24.766666666666666,10.483333333333334,117.33333333333333,150.83333333333334,79.36666666666666,7.8500000000000005
Beaumont-sur-Oise 95260,95260,95,49.14193220000001,2.2849324,13.739505550536414,0.35555555555555557,0.8266079354127117,38.77898760877369,1,0,0,0,5592.5,1183.35,4.05,2311.0,2535.0,78.65,10.5
Bellot 77510,77510,77,48.8570412,3.3182562000000004,17.680467156923932,0.3363888888888889,12.484559839453784,74.66822202547854,1,0,0,0,860.6,69.32,13.62,339.3,417.2,79.05999999999999,10.85
Belloy-en-France 95270,95270,95,49.089280200000005,2.367884,9.018065120506819,0.27,1.1233935260931311,33.69888612415038,1,0,0,0,1927.75,278.60833333333335,7.425,761.8333333333334,842.9166666666666,78.55,8.875000000000002
Bennecourt 78270,78270,78,49.041242,1.560926,11.628551218994993,0.3441666666666667,1.5316135728961295,64.27962596130422,1,0,0,0,1106.2307692307693,162.3846153846154,7.4,438.2307692307692,497.3076923076923,77.42307692307693,10.807692307692308
Bernay-Vilbert 77540,77540,77,48.6763829,2.9377531,18.767260128468664,0.42333333333333334,7.836208421427598,52.22677548233446,1,0,0,0,1122.7142857142858,174.21428571428572,16.242857142857144,432.14285714285717,478.57142857142856,79.71428571428571,7.814285714285714
Bernes-sur-Oise 95340,95340,95,49.1620172,2.2985653,16.164773375834663,0.4241666666666667,2.1235081481617826,40.683825168893975,1,0,0,0,5425.0,1050.2333333333333,5.1000000000000005,1964.3333333333333,2080.3333333333335,74.23333333333333,12.200000000000001
Bessancourt 95550,95550,95,49.0372777,2.2136286,2.107296814023568,0.1388888888888889,0.3301153048259337,30.28213341790584,1,0,0,0,7318.0,1145.2,6.4,2893.0,3080.0,77.3,10.8
Beton-Bazoches 77320,77320,77,48.701738,3.2444338,16.040129534346853,0.31972222222222224,16.8130530537728,71.22575780461541,1,0,0,0,742.2727272727273,50.12727272727273,13.9,295.59090909090907,351.6363636363636,77.25000000000001,10.750000000000002
Beynes 78650,78650,78,48.8558793,1.8735151,7.715043251666106,0.18194444444444444,0.4828779931270939,39.96903434658307,1,0,0,0,4299.5,426.35,10.350000000000001,1697.0,1804.5,81.0,6.6
Bezons 95870,95870,95,48.9250016,2.2105491,0.5116687945083486,0.04888888888888889,0.5507946396444121,23.101785805356982,0,0,0,1,29383.0,7063.2,4.2,11401.0,12424.0,75.5,15.5
Bezons 95870 (Agriculture),95870,95,48.9243,2.2128,0.5182356957312143,0.06055555555555556,0.36928965157476235,22.99045139880688,0,0,0,1,29383.0,7063.2,4.2,11401.0,12424.0,75.5,15.5
Bezons 95870 (Centre-ville),95870,95,48.9250016,2.2105491,0.5116687945083486,0.04888888888888889,0.5507946396444121,23.101785805356982,0,0,0,1,29383.0,7063.2,4.2,11401.0,12424.0,75.5,15.5
Bezons 95870 (Chênes - Val Notre Dame),95870,95,48.9243,2.2128,0.5182356957312143,0.06055555555555556,0.36928965157476235,22.99045139880688,0,0,0,1,29383.0,7063.2,4.2,11401.0,12424.0,75.5,15.5
Bezons 95870 (Nouveau Bezons),95870,95,48.9204595,2.2047466,1.170030602284846,0.10888888888888888,0.9917049913547287,23.125457447239537,0,0,0,1,29383.0,7063.2,4.2,11401.0,12424.0,75.5,15.5
Bièvres 91570,91570,91,48.7547679,2.2170148,4.8751395143703515,0.2125,0.4249779863343521,24.588837038951237,0,1,0,0,4639.0,478.7,9.7,1848.0,2010.0,79.5,8.3
Blandy 77115,77115,77,48.56740070000001,2.7824287,9.394566092113557,0.2511111111111111,9.12147673721564,49.500650548621145,1,0,0,0,976.5,53.4,18.25,381.5,428.0,78.4,7.25
Blaru 78270,78270,78,49.0490725,1.4784398,17.46847315716194,0.3536111111111111,4.663919391223577,69.99889218246572,1,0,0,0,1106.2307692307693,162.3846153846154,7.4,438.2307692307692,497.3076923076923,77.42307692307693,10.807692307692308
Blennes 77940,77940,77,48.2576831,3.023088,14.504814460864708,0.3163888888888889,10.110423315152659,84.00227629618027,1,0,0,0,703.8888888888889,70.05555555555556,11.766666666666667,284.44444444444446,346.0,76.71111111111111,9.488888888888887
Bobigny 93000 (Edouard Vaillant),93000,93,48.9095459,2.4606604,0.7515850092295133,0.0811111111111111,0.3165758079030455,22.374138246011317,0,0,0,1,53640.0,7923.2,6.8,19052.0,20184.0,66.7,22.7
Bobigny 93000 (Pierre Sémard),93000,93,48.9102905,2.4456892000000003,0.34897917755545843,0.055,0.4356059574331816,21.85589072230728,0,0,0,1,53640.0,7923.2,6.8,19052.0,20184.0,66.7,22.7
Boigneville 91720,91720,91,48.33506679999999,2.3741995,19.290157456398443,0.41805555555555557,0.8094343241604426,60.264251947003785,0,1,0,0,783.8571428571429,53.371428571428574,13.714285714285712,317.42857142857144,391.7142857142857,78.35714285714286,9.014285714285714
Boinville-en-Mantois 78930,78930,78,48.9298152,1.7568301,7.9633875346156335,0.26361111111111113,5.344123850001068,48.205551974170035,1,0,0,0,828.1428571428571,173.8857142857143,4.871428571428572,330.14285714285717,371.14285714285717,77.6857142857143,7.171428571428571
Boinville-le-Gaillard 78660,78660,78,48.4938398,1.8705744,17.531042094108077,0.3411111111111111,8.629054637147677,56.417074437975046,1,0,0,0,922.5714285714286,47.27142857142858,16.9,338.0,378.42857142857144,79.62857142857142,7.028571428571429
Bois-Colombes 92270 (Jean Mermoz),92270,92,48.9212098,2.2719608,0.981442529219709,0.11305555555555556,0.6939739875155738,21.090837940656886,0,0,0,1,28239.0,14707.8,1.9,12578.0,13843.0,78.4,9.8
Bois-d'Arcy 78390 (Les Jardins d'Arcy - La Normandie - La Colombe),78390,78,48.7997,2.0232,2.169123527994632,0.13444444444444445,1.5241187488342416,31.62549813572827,1,0,0,0,15142.0,2763.1,5.5,5918.0,6401.0,74.0,7.4
Bois-d'Arcy 78390 (Les Langots - La Croix Bonnet - Forêt Domaniale),78390,78,48.7997,2.0232,2.169123527994632,0.13444444444444445,1.5241187488342416,31.62549813572827,1,0,0,0,15142.0,2763.1,5.5,5918.0,6401.0,74.0,7.4
Bois-d'Arcy 78390 (Raymond Falaize - Bois Gazé),78390,78,48.7997,2.0232,2.169123527994632,0.13444444444444445,1.5241187488342416,31.62549813572827,1,0,0,0,15142.0,2763.1,5.5,5918.0,6401.0,74.0,7.4
Bois-le-Roi 77590,77590,77,48.4754789,2.6939537,6.787558470859095,0.22527777777777777,0.14207623482856443,52.706567137785704,1,0,0,0,3143.6666666666665,410.06666666666666,8.299999999999999,1270.0,1462.0,77.86666666666667,8.0
Boisemont 95000,95000,95,49.0223999,2.0026375,1.6492514203184783,0.0975,2.898459355635196,37.21453951529678,1,1,0,0,1396.5,375.45,3.55,606.0,671.5,76.1,9.4
Boissettes 77350,77350,77,48.520592,2.6103240000000003,1.3654347554978974,0.27666666666666667,1.014274008643711,46.22451351454754,0,1,0,0,7455.666666666667,1435.3,4.866666666666666,2783.6666666666665,3088.6666666666665,73.03333333333333,11.066666666666668
Boissise-le-Roi 77310,77310,77,48.5280356,2.5737655,4.114447495463659,0.33361111111111114,0.22765842465016065,44.541248807067866,0,1,0,0,6968.333333333333,700.9666666666666,9.266666666666667,2887.0,3110.0,77.89999999999999,8.799999999999999
Boissy-Mauvoisin 78200,78200,78,48.9622992,1.5814613000000002,9.270511851047678,0.31,3.620928586836611,60.52854888321607,1,0,0,0,4759.416666666667,634.1916666666667,5.066666666666666,1789.1666666666667,1904.3333333333333,75.70833333333333,9.891666666666666
Boissy-Saint-Léger 94470 (Bois Clary),94470,94,48.753992,2.5298126,1.9333475133537572,0.11027777777777778,1.8677389762336485,27.27752297327896,0,1,0,0,16345.0,1828.3,8.9,6318.0,6762.0,74.0,16.1
Boissy-Saint-Léger 94470 (Centre-ville - Progrès),94470,94,48.7515,2.5116,0.6348647074794866,0.06166666666666667,0.5232817251374577,26.669648127312364,0,1,0,0,16345.0,1828.3,8.9,6318.0,6762.0,74.0,16.1
Boissy-Saint-Léger 94470 (Savreau - Gare),94470,94,48.7515,2.5116,0.6348647074794866,0.06166666666666667,0.5232817251374577,26.669648127312364,0,1,0,0,16345.0,1828.3,8.9,6318.0,6762.0,74.0,16.1
Boissy-l'Aillerie 95650,95650,95,49.0770562,2.0291683000000003,5.945438714399759,0.19916666666666666,0.3362366334621931,39.586161398832594,1,0,0,0,716.8,123.08,5.42,273.2,300.2,78.84,9.5
Boissy-la-Rivière 91690,91690,91,48.374679,2.1530914,7.030927213085359,0.20027777777777778,5.887042492270499,58.028258470475095,0,1,0,0,672.0,59.73333333333333,10.566666666666668,269.8333333333333,307.8333333333333,78.28333333333335,8.716666666666667
Boissy-le-Châtel 77169,77169,77,48.8268,3.1357,3.896180268346299,0.11805555555555555,4.5461574516093295,62.063211183810395,1,0,0,0,1401.5,160.35,9.375,531.75,610.5,78.175,9.6
Boissy-le-Cutté 91590,91590,91,48.4706356,2.28429,9.631154372621447,0.2363888888888889,5.2432943520799355,46.98501522630339,0,1,0,0,1641.0,235.4625,8.0875,659.0,728.625,79.82499999999999,7.3375
Boissy-sous-Saint-Yon 91790,91790,91,48.5486852,2.2124998,4.976479137814893,0.20166666666666666,3.5392713810558543,40.55784344102375,0,1,0,0,3868.0,481.1,8.0,1553.0,1654.0,78.5,6.3
Bondoufle 91070,91070,91,48.614973600000006,2.3835366,3.8331532668588197,0.1613888888888889,2.974845320161038,33.61444242207879,0,1,0,0,9538.0,1410.9,6.8,3531.0,3655.0,76.8,8.4
Bondy 93140,93140,93,48.9031,2.48291,0.27157950237312917,0.021944444444444444,0.9651601887868433,23.051654693055937,0,0,0,1,53353.0,9753.7,5.5,19707.0,20912.0,71.3,21.2
Bondy 93140 (La Mare à Veuve),93140,93,48.89403239999999,2.4791346,0.9947961445854047,0.0975,0.04835322619924585,22.648723705945446,0,1,0,1,53353.0,9753.7,5.5,19707.0,20912.0,71.3,21.2
Bondy 93140 (Le Saule Blanc),93140,93,48.9035417,2.4920707,0.48790741059174403,0.10972222222222222,1.2011616520057429,23.4541546156026,0,0,0,1,53353.0,9753.7,5.5,19707.0,20912.0,71.3,21.2
Bondy 93140 (Les Mérisiers),93140,93,48.9129869,2.4879975,1.2582740048004393,0.135,1.610814449634836,23.58891093848445,0,0,0,1,53353.0,9753.7,5.5,19707.0,20912.0,71.3,21.2
Bondy 93140 (Moulin à Vent - Le Mainguy),93140,93,48.9018,2.4893,0.24227859075477812,0.08361111111111111,0.9734471010810722,23.28460996497408,0,0,0,1,53353.0,9753.7,5.5,19707.0,20912.0,71.3,21.2
Bonnelles 78830,78830,78,48.6182,2.02973,15.554117780480007,0.39944444444444444,9.51616570749954,40.40831751910368,1,1,0,0,1938.5,136.35,15.85,735.0,811.0,75.15,6.85
Bonneuil-en-France 95500,95500,95,48.9748734,2.4332879000000003,1.5349402936056407,0.12361111111111112,2.4466739963166044,25.088874146477828,0,1,0,0,7931.0,925.35,7.2,2866.5,3025.5,79.05,14.9
Bonneuil-sur-Marne 94380 (Centre-ville - Parc du Raincy),94380,94,48.7695,2.4793,1.5337122440374915,0.12527777777777777,1.086672771987298,24.58017630748272,0,0,1,0,17950.0,3257.7,5.5,6877.0,7155.0,74.3,17.7
Bonneuil-sur-Marne 94380 (Haut-Bonneuil),94380,94,48.7695,2.4793,1.5337122440374915,0.12527777777777777,1.086672771987298,24.58017630748272,0,0,1,0,17950.0,3257.7,5.5,6877.0,7155.0,74.3,17.7
Bonnières-sur-Seine 78270,78270,78,49.0371276,1.5805027,10.157168538727648,0.2644444444444444,0.1967342064293941,62.848337127459224,1,0,0,0,1106.2307692307693,162.3846153846154,7.4,438.2307692307692,497.3076923076923,77.42307692307693,10.807692307692308
Bouafle 78410,78410,78,48.96449439999999,1.9001777,3.7653826747005463,0.18055555555555555,3.2740277587517226,40.173666847049084,1,0,0,0,3602.2,584.1,5.720000000000001,1455.8,1568.2,78.2,10.06
Bouffémont 95570,95570,95,49.0431342,2.2991001,5.322297060422189,0.23583333333333334,1.755895591049749,29.510855759340984,1,0,0,0,2538.0,743.4499999999999,3.775,916.75,962.75,76.525,8.05
Bougival 78380,78380,78,48.8642975,2.1377696,1.7126070733479284,0.09833333333333333,1.123264940699761,24.855930891123077,1,0,0,0,8699.0,3151.8,2.8,3585.0,4020.0,79.4,9.5
Bouleurs 77580,77580,77,48.88019,2.907062,8.41013871684167,0.2972222222222222,2.296561447365432,46.937916970584546,1,0,0,0,1329.25,132.22500000000002,10.083333333333334,518.9166666666666,596.0,80.05,7.433333333333334
Boullay-les-Troux 91470,91470,91,48.6790214,2.0486843,8.943859092172252,0.3075,3.1179780674587283,35.589476504522814,0,1,0,0,2542.5,232.58333333333337,9.516666666666666,1008.0,1080.5,76.99999999999999,5.3999999999999995
Boulogne-Billancourt 92100 (Château - Les Princes Marmottan),92100,92,48.8333,2.25,0.718411247837934,0.08722222222222223,0.4544750519864592,20.32208355532706,0,0,1,0,120071.0,19460.5,6.2,58846.0,67048.0,81.2,9.4
Boulogne-Billancourt 92100 (Renault - Billancourt),92100,92,48.8272833,2.2419446,0.898294193844563,0.0875,0.589125859530548,20.71190967536364,0,0,1,0,120071.0,19460.5,6.2,58846.0,67048.0,81.2,9.4
Boulogne-Billancourt 92100 (Vaillant - Marcel Sembat),92100,92,48.83458220000001,2.2422707,0.14120493889688915,0.0077777777777777776,0.1507181866127742,20.548490985140024,0,0,1,0,120071.0,19460.5,6.2,58846.0,67048.0,81.2,9.4
Bouray-sur-Juine 91850,91850,91,48.5207694,2.299413,8.493917144496649,0.2563888888888889,1.5138036495787137,42.117530752198476,0,1,0,0,2184.0,302.1,7.2,878.0,952.0,81.4,7.6
Bourg-la-Reine 92340 (Bas Coquarts),92340,92,48.7866359,2.3110726,0.8743566130596334,0.08472222222222223,0.7088879084570014,20.920377440470165,0,1,0,0,20667.0,11111.3,1.9,9122.0,9940.0,77.0,9.3
Bourg-la-Reine 92340 (Fontaine - Grelot),92340,92,48.77403320000001,2.3179042,2.114599601382333,0.1411111111111111,0.675148049527655,21.571297888676785,0,1,0,0,20667.0,11111.3,1.9,9122.0,9940.0,77.0,9.3
Bourron-Marlotte 77780,77780,77,48.3408614,2.7056355,7.288267805417165,0.22361111111111112,1.3334679332141668,64.94616719318707,1,0,0,0,2772.0,246.2,11.3,1144.0,1386.0,74.4,10.1
Boussy-Saint-Antoine 91800,91800,91,48.6887478,2.5299905,1.917668421241969,0.09805555555555556,0.8902850217458763,30.987382314766435,0,1,0,0,16610.5,3240.8,4.75,6795.5,7291.0,77.0,10.3
Boutigny-sur-Essonne 91820,91820,91,48.437427,2.3805733,16.025093771950225,0.4216666666666667,0.43579258431481155,50.05114496339295,0,1,0,0,1963.5,147.45,12.35,782.5,879.0,73.55,8.1
Bray-et-Lû 95710,95710,95,49.1395811,1.6585408,29.880955504040255,0.5419444444444445,12.544023420566177,62.93938805181363,1,0,0,0,640.0,115.10000000000001,8.766666666666666,234.66666666666666,288.6666666666667,78.56666666666666,11.633333333333333
Bray-sur-Seine 77480,77480,77,48.4149956,3.2394035,16.97346331301596,0.39944444444444444,11.01004385516768,83.4732723310316,1,0,0,0,488.9166666666667,119.30833333333332,8.9,206.25,261.8333333333333,75.86666666666666,12.324999999999998
Breuil-Bois-Robert 78930,78930,78,48.9445389,1.71502,5.278136468365305,0.215,4.350031729915356,51.24004246459513,1,0,0,0,828.1428571428571,173.8857142857143,4.871428571428572,330.14285714285717,371.14285714285717,77.6857142857143,7.171428571428571
Breuillet 91650,91650,91,48.5668797,2.1729461,5.795270585493219,0.20777777777777778,0.29252287043678116,39.76276712585664,0,1,0,0,3511.0,570.8333333333334,5.366666666666667,1367.0,1457.6666666666667,79.26666666666667,8.966666666666667
Breux-Jouy 91650,91650,91,48.5508514,2.1639559,7.253239766489666,0.2683333333333333,1.6139891698453601,41.36165308411457,0,1,0,0,3511.0,570.8333333333334,5.366666666666667,1367.0,1457.6666666666667,79.26666666666667,8.966666666666667
Brie-Comte-Robert 77170 (Centre-ville),77170,77,48.6719,2.6973,6.928653454877281,0.18194444444444444,8.578152566450946,39.1205776142066,1,1,0,0,7667.333333333333,521.5333333333333,11.899999999999999,3158.0,3350.6666666666665,77.7,8.033333333333333
Brie-Comte-Robert 77170 (Leclerc - Verdun),77170,77,48.6719,2.6973,6.928653454877281,0.18194444444444444,8.578152566450946,39.1205776142066,1,1,0,0,7667.333333333333,521.5333333333333,11.899999999999999,3158.0,3350.6666666666665,77.7,8.033333333333333
Briis-sous-Forges 91640,91640,91,48.62469160000001,2.1243349,7.380878072170059,0.26722222222222225,7.244444735834289,36.411926788266314,0,1,0,0,1870.0,206.125,8.725,710.0,773.25,77.52499999999999,6.875
Brières-les-Scellés 91150,91150,91,48.4577346,2.1388602000000003,2.919847663342103,0.13333333333333333,2.7737129103146456,50.351532172414714,0,1,0,0,2267.6,86.47333333333333,12.033333333333335,905.9333333333333,1018.4666666666667,80.00666666666667,7.959999999999998
Brueil-en-Vexin 78440,78440,78,49.0311665,1.8172217,7.826700968024913,0.27694444444444444,4.786301413978213,47.830281130971585,1,0,0,0,1812.3636363636363,296.25454545454545,6.418181818181818,682.0909090909091,750.0909090909091,77.54545454545455,7.927272727272728
Brunoy 91800,91800,91,48.697931200000006,2.5044613,0.3742806563081749,0.06777777777777778,0.23299690293222416,29.536519204242413,0,1,0,0,16610.5,3240.8,4.75,6795.5,7291.0,77.0,10.3
Brunoy 91800 (Centre-ville),91800,91,48.6991148,2.5064435,0.5025841969062482,0.0725,0.07376102086783572,29.523518252106577,0,1,0,0,16610.5,3240.8,4.75,6795.5,7291.0,77.0,10.3
Brunoy 91800 (Nord),91800,91,48.6942,2.4922,0.981038473470371,0.08555555555555555,1.1925791621688648,29.403967570849726,0,1,0,0,16610.5,3240.8,4.75,6795.5,7291.0,77.0,10.3
Brunoy 91800 (Sud),91800,91,48.6942,2.4922,0.981038473470371,0.08555555555555555,1.1925791621688648,29.403967570849726,0,1,0,0,16610.5,3240.8,4.75,6795.5,7291.0,77.0,10.3
Bruyères-le-Châtel 91680,91680,91,48.5922609,2.1909499,3.99771592841252,0.15333333333333332,1.6425473344030348,37.193915928278074,0,1,0,0,1937.0,204.45,8.3,787.5,859.0,79.35,7.6
Bruyères-sur-Oise 95820,95820,95,49.1573165,2.3301301,16.51835008563209,0.4802777777777778,0.39727620643175604,40.14083045595094,1,0,0,0,4323.0,485.2,8.9,1433.0,1490.0,77.4,12.4
Bry-sur-Marne 94360,94360,94,48.8352872,2.5193322,2.678008579691937,0.21222222222222223,1.1734905044893107,24.21058112476693,0,1,0,0,16624.0,4962.4,3.4,6752.0,7406.0,76.4,8.5
Bry-sur-Marne 94360 (Centre-ville - Gare),94360,94,48.8381,2.5249,3.092479716136577,0.22416666666666665,0.7600473521221903,24.44178696744788,0,1,0,0,16624.0,4962.4,3.4,6752.0,7406.0,76.4,8.5
Bry-sur-Marne 94360 (Coudrais - Fontaines Giroux),94360,94,48.8381,2.5249,3.092479716136577,0.22416666666666665,0.7600473521221903,24.44178696744788,0,1,0,0,16624.0,4962.4,3.4,6752.0,7406.0,76.4,8.5
Bry-sur-Marne 94360 (Maisons Rouges - Saint-Camille - Plâteau),94360,94,48.8381,2.5249,3.092479716136577,0.22416666666666665,0.7600473521221903,24.44178696744788,0,1,0,0,16624.0,4962.4,3.4,6752.0,7406.0,76.4,8.5
Bry-sur-Marne 94360 (Pépinière),94360,94,48.8451761,2.5173658,2.7231069078067587,0.245,0.6287963584277609,24.016824861794284,0,1,0,0,16624.0,4962.4,3.4,6752.0,7406.0,76.4,8.5
Bréau 77720,77720,77,48.5620927,2.8806749,16.38391963369529,0.3252777777777778,5.800879528553377,54.71330969845074,1,0,0,0,1219.2,105.82000000000001,14.23,460.8,503.9,79.24000000000001,7.44
Brétigny-sur-Orge 91220,91220,91,48.6099887,2.3075288,3.2543119723114935,0.17222222222222222,0.5410861860207419,34.007359982918985,0,1,0,0,15315.5,1181.65,11.1,6058.5,6590.5,79.3,10.7
Brétigny-sur-Orge 91220 (Cendrennes - Bois de Châtres),91220,91,48.6113,2.3059,3.23568913205627,0.16972222222222222,0.5803220092162373,33.90316325881067,0,1,0,0,15315.5,1181.65,11.1,6058.5,6590.5,79.3,10.7
Brétigny-sur-Orge 91220 (Centre-ville),91220,91,48.6068032,2.3020586,3.789034933138465,0.14888888888888888,0.006478145565748265,34.316384613047326,0,1,0,0,15315.5,1181.65,11.1,6058.5,6590.5,79.3,10.7
Brétigny-sur-Orge 91220 (La Fontaine),91220,91,48.615619,2.305107,2.9732062890015065,0.09944444444444445,1.0120747517438493,33.53521856363438,0,1,0,0,15315.5,1181.65,11.1,6058.5,6590.5,79.3,10.7
Brétigny-sur-Orge 91220 (La Roseraie),91220,91,48.6057402,2.3118057,3.42766742911967,0.1688888888888889,0.7273700072741268,34.35443051136583,0,1,0,0,15315.5,1181.65,11.1,6058.5,6590.5,79.3,10.7
Brétigny-sur-Orge 91220 (Moinerie),91220,91,48.5983284,2.3042867,4.421066413938669,0.18083333333333335,0.9502398202137785,35.04331339182642,0,1,0,0,15315.5,1181.65,11.1,6058.5,6590.5,79.3,10.7
Bréval 78980,78980,78,48.9447453,1.5331841999999998,13.277043349356694,0.3975,0.6234467709837966,63.446683525616756,1,0,0,0,778.0,91.89999999999999,7.5857142857142845,303.2857142857143,368.0,78.57142857142858,8.285714285714285
Buc 78530,78530,78,48.7739339,2.1259014,3.1252523995958814,0.18,1.5871842998714674,27.16758499197112,0,1,0,0,5821.0,721.3,8.1,2429.0,2635.0,77.6,7.0
Buchelay 78200,78200,78,48.9793554,1.6716534,2.468007337891586,0.17694444444444443,2.5579501120285517,54.96817470856034,1,0,0,0,4759.416666666667,634.1916666666667,5.066666666666666,1789.1666666666667,1904.3333333333333,75.70833333333333,9.891666666666666
Buhy 95770,95770,95,49.19277279999999,1.6929256,30.92316673907522,0.5136111111111111,12.281242903250458,64.34938183701028,1,0,0,0,579.3333333333334,62.5,8.766666666666666,203.0,250.66666666666666,79.93333333333334,12.933333333333332
Bullion 78830,78830,78,48.6221663,1.9945126,12.924489743707715,0.33944444444444444,9.624561353841166,41.65157740306142,1,1,0,0,1938.5,136.35,15.85,735.0,811.0,75.15,6.85
Bures-sur-Yvette 91440,91440,91,48.6972179,2.1632719,1.5713915825201434,0.10583333333333333,0.13473118425314112,29.890837156969162,0,1,0,0,9804.0,2351.1,4.2,3802.0,4151.0,66.9,8.0
Bussy-Saint-Georges 77600 (Clos - Tillet - Génitoy - Golf),77600,77,48.849,2.6904,2.751995259646228,0.0961111111111111,1.9445823899531784,33.368546159520584,0,1,0,0,5931.333333333333,945.7166666666667,5.2666666666666675,2266.0,2388.0,77.83333333333333,8.916666666666666
Butry-sur-Oise 95430,95430,95,49.0856723,2.1979556000000002,7.402348420725956,0.2927777777777778,0.6637930832514976,34.731211260957714,1,0,0,0,4590.0,709.0999999999999,7.6499999999999995,1867.5,2017.5,77.85,9.05
COMMENY 95450,95450,95,49.1271097,1.8904928,15.427484955953988,0.33916666666666667,4.313834276713266,49.58215611485089,1,0,0,0,719.6428571428571,101.04285714285717,7.885714285714285,279.14285714285717,305.07142857142856,78.22142857142858,8.014285714285714
Cachan 94230,94230,94,48.79454129999999,2.3340758,1.5151291467054706,0.11583333333333333,0.6515499360134973,20.40577303791662,0,1,0,0,31069.0,11339.1,2.7,13513.0,14388.0,71.4,13.3
Cachan 94230 (Coteau),94230,94,48.79454129999999,2.3340758,1.5151291467054706,0.11583333333333333,0.6515499360134973,20.40577303791662,0,1,0,0,31069.0,11339.1,2.7,13513.0,14388.0,71.4,13.3
Cachan 94230 (La Plaine),94230,94,48.78823870000001,2.334002,1.2235243308153134,0.06472222222222222,1.0359321989615387,20.731946038069193,0,1,0,0,31069.0,11339.1,2.7,13513.0,14388.0,71.4,13.3
Cachan 94230 (Ouest Nord),94230,94,48.7963,2.3366,1.2499256169304747,0.10111111111111111,0.6853523902055039,20.31671150400174,0,1,0,0,31069.0,11339.1,2.7,13513.0,14388.0,71.4,13.3
Cachan 94230 (Ouest Sud),94230,94,48.7963,2.3366,1.2499256169304747,0.10111111111111111,0.6853523902055039,20.31671150400174,0,1,0,0,31069.0,11339.1,2.7,13513.0,14388.0,71.4,13.3
Cannes-Écluse 77130,77130,77,48.3641051,2.9920342,3.2594266701582506,0.10694444444444444,4.049155628128301,73.99395225880465,1,0,0,0,3068.75,311.27500000000003,11.774999999999999,1183.1666666666667,1314.9166666666667,74.38333333333334,12.458333333333334
Carnetin 77400,77400,77,48.9006464,2.7046898,2.7341238244736727,0.19277777777777777,2.054884747510306,34.6656073901162,1,0,0,0,6713.714285714285,1273.7714285714285,4.714285714285714,2778.8571428571427,3009.4285714285716,77.57142857142857,9.785714285714286
Carrières-sous-Poissy 78955 (Le Ronceray),78955,78,48.9527563,2.0423087,2.8962804459628346,0.1486111111111111,2.169447208891649,31.80342467027475,1,1,0,0,16212.0,2254.8,7.2,6344.0,6993.0,79.0,15.0
Carrières-sous-Poissy 78955 (Les Fleurs),78955,78,48.945150700000006,2.0247887,2.4635670492686454,0.13,1.7804888627526938,32.44962184872407,1,1,0,0,16212.0,2254.8,7.2,6344.0,6993.0,79.0,15.0
Carrières-sous-Poissy 78955 (Les Oiseaux),78955,78,48.9389422,2.0150843000000003,2.483251835751448,0.15333333333333332,1.1357437007009434,32.76916347508867,1,0,0,0,16212.0,2254.8,7.2,6344.0,6993.0,79.0,15.0
Carrières-sous-Poissy 78955 (Saint-Blaise),78955,78,48.9495,2.0407,2.540950992299346,0.15666666666666668,1.805632477991616,31.763446200845966,1,1,0,0,16212.0,2254.8,7.2,6344.0,6993.0,79.0,15.0
Carrières-sous-Poissy 78955 (Saint-Louis - Champfleury),78955,78,48.9495,2.0407,2.540950992299346,0.15666666666666668,1.805632477991616,31.763446200845966,1,1,0,0,16212.0,2254.8,7.2,6344.0,6993.0,79.0,15.0
Carrières-sur-Seine 78420 (Allouettes - Réveil Matin - Printemps),78420,78,48.9069,2.1792,2.1507391953808956,0.14,1.565399607289765,23.673191697611784,1,1,0,0,14967.0,2981.5,5.0,5830.0,6394.0,76.4,8.9
Carrières-sur-Seine 78420 (Catelaine - Vignes Blanches),78420,78,48.9069,2.1792,2.1507391953808956,0.14,1.565399607289765,23.673191697611784,1,1,0,0,14967.0,2981.5,5.0,5830.0,6394.0,76.4,8.9
Carrières-sur-Seine 78420 (Centre historique),78420,78,48.9069,2.1792,2.1507391953808956,0.14,1.565399607289765,23.673191697611784,1,1,0,0,14967.0,2981.5,5.0,5830.0,6394.0,76.4,8.9
Carrières-sur-Seine 78420 (Fermettes - Amandiers - Colombier),78420,78,48.9069,2.1792,2.1507391953808956,0.14,1.565399607289765,23.673191697611784,1,1,0,0,14967.0,2981.5,5.0,5830.0,6394.0,76.4,8.9
Cergy 95000,95000,95,49.0527528,2.0388736,3.7357238152084604,0.1272222222222222,0.4809751507207596,37.439720716285045,1,1,0,0,1396.5,375.45,3.55,606.0,671.5,76.1,9.4
Cergy 95000 (Axe Majeur - Horloge),95000,95,49.0506875,2.0337028000000004,3.458077407380508,0.1638888888888889,0.12353254655584454,37.52694886286433,1,1,0,0,1396.5,375.45,3.55,606.0,671.5,76.1,9.4
Cergy 95000 (Bords d'Oise),95000,95,49.05,2.1,1.728467090973964,0.1438888888888889,0.5123693998123948,34.743630094617856,1,1,0,0,1396.5,375.45,3.55,606.0,671.5,76.1,9.4
Cergy 95000 (Coteaux),95000,95,49.0415482,2.0640967,1.5648688499716068,0.1322222222222222,1.2624581451810537,35.58523840114409,1,1,0,0,1396.5,375.45,3.55,606.0,671.5,76.1,9.4
Cergy 95000 (Grand Centre),95000,95,49.0527528,2.0388736,3.7357238152084604,0.1272222222222222,0.4809751507207596,37.439720716285045,1,1,0,0,1396.5,375.45,3.55,606.0,671.5,76.1,9.4
Cergy 95000 (Orée du Bois),95000,95,49.05,2.1,1.728467090973964,0.1438888888888889,0.5123693998123948,34.743630094617856,1,1,0,0,1396.5,375.45,3.55,606.0,671.5,76.1,9.4
Cergy 95800,95800,95,49.0527528,2.0388736,3.7357238152084604,0.1272222222222222,0.4809751507207596,37.439720716285045,1,1,0,0,6681.0,1199.5,5.6,2487.0,2662.0,77.7,8.9
Cergy 95800 (Axe Majeur - Horloge),95800,95,49.0506875,2.0337028000000004,3.458077407380508,0.1638888888888889,0.12353254655584454,37.52694886286433,1,1,0,0,6681.0,1199.5,5.6,2487.0,2662.0,77.7,8.9
Cergy 95800 (Les Hauts-de-Cergy),95800,95,49.04851170000001,2.0091564,3.359919810254301,0.15555555555555556,0.15216062127459662,38.504368683061365,1,1,0,0,6681.0,1199.5,5.6,2487.0,2662.0,77.7,8.9
Cergy 95800 (Orée du Bois),95800,95,49.0364,2.0761,0.6654628710414516,0.06777777777777778,0.25125821870938675,34.729409810312276,1,1,0,0,6681.0,1199.5,5.6,2487.0,2662.0,77.7,8.9
Cernay-la-Ville 78720,78720,78,48.6731134,1.974341,10.460555141331923,0.4197222222222222,7.859131599064738,39.455790010601525,0,1,0,0,891.4,87.91999999999999,11.499999999999998,368.0,421.2,77.41999999999999,7.8
Cerny 91590,91590,91,48.4762984,2.3296911,12.993135068957239,0.3138888888888889,1.9007527841584462,46.23334086054369,0,1,0,0,1641.0,235.4625,8.0875,659.0,728.625,79.82499999999999,7.3375
Cesson 77240,77240,77,48.5624381,2.6021145,2.939619872547213,0.15888888888888889,0.6241559887259206,42.56757759324064,0,1,0,0,6638.666666666667,728.5666666666666,10.533333333333333,2517.0,2672.3333333333335,76.53333333333335,8.866666666666665
Chailly-en-Bière 77930,77930,77,48.4669449,2.608877,5.889563791730628,0.1738888888888889,5.407057666439562,50.80791502643176,0,1,0,0,1226.5,142.5666666666667,9.2,491.6666666666667,561.8333333333334,76.76666666666667,7.316666666666667
Chailly-en-Brie 77120,77120,77,48.78927210000001,3.1242603,3.853902085091205,0.13166666666666665,3.8707794765625714,61.552572892873584,1,0,0,0,2886.1111111111113,244.65555555555557,15.0,1222.7777777777778,1393.0,76.78888888888889,9.266666666666667
Chalautre-la-Petite 77160,77160,77,48.5289233,3.313947,3.8494541735014467,0.1502777777777778,2.7028950546489683,81.8612876275392,1,0,0,0,1676.3,119.87,14.739999999999998,731.5,845.3,76.82,11.47
Chalo-Saint-Mars 91780,91780,91,48.4278265,2.0666569,7.282675701236851,0.21861111111111112,5.816384349488457,54.90528228819967,0,1,0,0,692.0,51.4,15.4,270.6666666666667,321.3333333333333,79.73333333333333,8.666666666666666
Chalou-Moulineux 91740,91740,91,48.3851153,2.0206369,12.105821554730516,0.2594444444444444,3.1386599664679435,60.14098495068232,1,0,0,0,950.6666666666666,85.93333333333334,10.200000000000001,389.3333333333333,445.3333333333333,77.7,10.433333333333332
Chamarande 91730,91730,91,48.5136159,2.2174622000000004,8.511820048519581,0.2411111111111111,0.1598245846331595,43.66468331567592,0,1,0,0,564.6666666666666,121.5,4.133333333333334,226.66666666666666,247.0,81.6,8.866666666666665
Chambourcy 78240,78240,78,48.9058999,2.0396454,2.3324998373287347,0.13722222222222222,2.461501131834494,30.547943353394963,1,0,0,0,3359.0,538.6,5.45,1326.5,1453.0,70.75,9.0
Chambry 77910,77910,77,48.998579,2.8937506,4.834341064267515,0.21555555555555556,4.828493046837952,48.956597003498956,1,0,0,0,1148.25,126.42500000000001,9.15,448.5,491.75,79.325,9.924999999999999
Chamigny 77260,77260,77,48.9737096,3.151646,18.449767586043173,0.3836111111111111,3.211383437297432,64.72291894183465,1,0,0,0,2168.714285714286,241.25714285714284,8.857142857142858,883.0,1049.2857142857142,77.18571428571428,12.271428571428572
Champagne-sur-Oise 95660,95660,95,49.1339431,2.2312397,12.315944135820725,0.36666666666666664,0.8654758689425978,38.58121086773096,1,0,0,0,5018.0,531.0,9.5,1887.0,2025.0,76.9,11.0
Champagne-sur-Seine 77430,77430,77,48.3948577,2.8028617,2.3444708332598707,0.16555555555555557,1.3554760920499107,63.40465251233679,1,0,0,0,6233.0,856.2,7.3,2722.0,3105.0,71.2,15.6
Champcueil 91750,91750,91,48.5149123,2.4500815,10.72027997323239,0.42944444444444446,6.15986306496692,43.22000631763309,0,1,0,0,1652.6666666666667,137.73333333333335,10.833333333333334,564.6666666666666,615.6666666666666,77.93333333333334,8.6
Champigny-sur-Marne 94500,94500,94,48.8137759,2.5107384,2.2641177430508805,0.12805555555555556,0.7558449115703978,24.222679350242327,0,1,0,0,77630.0,6869.9,11.3,30328.0,32378.0,74.3,14.5
Champigny-sur-Marne 94500 (Centre-ville - Coteaux),94500,94,48.8164,2.4937,2.3210513936692605,0.21916666666666668,1.339372296744198,23.410569025912316,0,1,0,0,77630.0,6869.9,11.3,30328.0,32378.0,74.3,14.5
Champigny-sur-Marne 94500 (Coeuilly Village Parisien),94500,94,48.8164,2.4937,2.3210513936692605,0.21916666666666668,1.339372296744198,23.410569025912316,0,1,0,0,77630.0,6869.9,11.3,30328.0,32378.0,74.3,14.5
Champigny-sur-Marne 94500 (Le Bois l'Abbe - Coeuilly),94500,94,48.8164,2.4937,2.3210513936692605,0.21916666666666668,1.339372296744198,23.410569025912316,0,1,0,0,77630.0,6869.9,11.3,30328.0,32378.0,74.3,14.5
Champigny-sur-Marne 94500 (Le Plateau),94500,94,48.8124983,2.5264459,1.5627784279921066,0.09416666666666666,1.334555209077733,24.972259475803053,0,1,0,0,77630.0,6869.9,11.3,30328.0,32378.0,74.3,14.5
Champigny-sur-Marne 94500 (Les Mordacs - Coeuilly),94500,94,48.8164,2.4937,2.3210513936692605,0.21916666666666668,1.339372296744198,23.410569025912316,0,1,0,0,77630.0,6869.9,11.3,30328.0,32378.0,74.3,14.5
Champigny-sur-Marne 94500 (Maroc - Fourchette - Polangis),94500,94,48.8164,2.4937,2.3210513936692605,0.21916666666666668,1.339372296744198,23.410569025912316,0,1,0,0,77630.0,6869.9,11.3,30328.0,32378.0,74.3,14.5
Champigny-sur-Marne 94500 (Plant - Tremblay),94500,94,48.8164,2.4937,2.3210513936692605,0.21916666666666668,1.339372296744198,23.410569025912316,0,1,0,0,77630.0,6869.9,11.3,30328.0,32378.0,74.3,14.5
Champigny-sur-Marne 94500 (Quatre Cités - Simonettes),94500,94,48.8164,2.4937,2.3210513936692605,0.21916666666666668,1.339372296744198,23.410569025912316,0,1,0,0,77630.0,6869.9,11.3,30328.0,32378.0,74.3,14.5
Champlan 91160,91160,91,48.7073405,2.2758626,1.9822443249588109,0.085,1.4883647944393295,26.437772957554856,0,1,0,0,8612.25,1761.6499999999999,5.05,3403.5,3726.75,77.75,9.45
Champs-sur-Marne 77420 (Bords de Marne),77420,77,48.859511,2.5908687,1.1916540993030584,0.06833333333333333,1.718700458337904,27.734782287633216,1,1,0,0,25041.0,3406.9,7.4,10141.0,10778.0,72.2,12.8
Champs-sur-Marne 77420 (Centre-ville),77420,77,48.8529972,2.6014664,0.12953207198087283,0.0675,1.4992643072213965,28.30673644395006,0,1,0,0,25041.0,3406.9,7.4,10141.0,10778.0,72.2,12.8
Champs-sur-Marne 77420 (Le Nesles),77420,77,48.8527088,2.5798454,1.691016828549281,0.09027777777777778,1.0926335569884997,27.141619967415995,0,1,0,0,25041.0,3406.9,7.4,10141.0,10778.0,72.2,12.8
Changis-sur-Marne 77660,77660,77,48.9586795,3.0139203,8.962905904159786,0.3202777777777778,0.8943952254291835,55.25606650362135,1,0,0,0,1266.5,138.3,10.15,462.5,526.0,78.0,9.399999999999999
Chanteloup-en-Brie 77600,77600,77,48.8555777,2.7395512,3.4201222001065856,0.16416666666666666,2.486507310385414,36.30239452973812,0,1,0,0,5931.333333333333,945.7166666666667,5.2666666666666675,2266.0,2388.0,77.83333333333333,8.916666666666666
Chanteloup-les-Vignes 78570,78570,78,48.9784414,2.0302362,4.936182487276754,0.21055555555555555,0.9197288693984368,33.519385283524,1,0,0,0,11849.0,2521.75,5.1,4426.0,4743.0,77.15,14.25
Chapet 78130,78130,78,48.9661049,1.9342435,3.8827558247536533,0.18916666666666668,3.3129396938689646,38.24249634323609,1,0,0,0,17053.0,1496.25,8.55,5796.0,6218.0,74.25,13.5
Charenton-le-Pont 94220 (Centre ancien),94220,94,48.8221,2.4122,0.11679133875458246,0.006388888888888889,0.12606140923226275,20.303613036228064,0,0,1,0,30374.0,16418.4,1.9,14168.0,15650.0,79.1,9.6
Charenton-le-Pont 94220 (Pasteur - Saint-Pierre),94220,94,48.8221,2.4122,0.11679133875458246,0.006388888888888889,0.12606140923226275,20.303613036228064,0,0,1,0,30374.0,16418.4,1.9,14168.0,15650.0,79.1,9.6
Charenton-le-Pont 94220 (Plateau de Gravelle),94220,94,48.8221,2.4122,0.11679133875458246,0.006388888888888889,0.12606140923226275,20.303613036228064,0,0,1,0,30374.0,16418.4,1.9,14168.0,15650.0,79.1,9.6
Charny 77410,77410,77,48.9716476,2.7608632,9.751720579934746,0.28305555555555556,7.159048411559781,40.02494343752884,1,0,0,0,2232.4545454545455,210.71818181818182,8.618181818181819,854.7272727272727,911.2727272727273,79.42727272727272,6.945454545454544
Chars 95750,95750,95,49.1604049,1.9367877,16.87579065868707,0.4361111111111111,0.2521824318207807,49.94271842911509,1,0,0,0,1172.0,86.45,10.85,439.0,492.0,76.7,6.6
Chartrettes 77590,77590,77,48.4881157,2.7005289,6.292947399143148,0.2927777777777778,0.4220660350447555,51.90566404143597,1,0,0,0,3143.6666666666665,410.06666666666666,8.299999999999999,1270.0,1462.0,77.86666666666667,8.0
Chatignonville 91410,91410,91,48.4681763,1.9316111,17.524865340188008,0.3233333333333333,8.87802290661415,55.8899743659909,1,1,0,0,1669.6363636363637,90.48181818181818,12.509090909090911,676.0,749.2727272727273,78.15454545454546,9.454545454545455
Chatou 78400,78400,78,48.8897044,2.1573695,1.0532508849427313,0.04027777777777778,0.5111114960014874,24.21734787041844,0,1,0,0,30253.0,5955.3,5.1,12842.0,14086.0,78.5,8.6
Chatou 78400 (Est),78400,78,48.902003,2.164274,1.8535674447984185,0.12416666666666666,1.7163372843813218,24.18525202266117,0,1,0,0,30253.0,5955.3,5.1,12842.0,14086.0,78.5,8.6
Chatou 78400 (Nord),78400,78,48.8933469,2.1349286,0.6446717720558324,0.08861111111111111,0.36340630567438836,25.347793525942276,0,1,0,0,30253.0,5955.3,5.1,12842.0,14086.0,78.5,8.6
Chatou 78400 (Ouest),78400,78,48.89853400000001,2.154346,1.041455448360022,0.06222222222222222,1.4859905995739617,24.54769767806529,0,1,0,0,30253.0,5955.3,5.1,12842.0,14086.0,78.5,8.6
Chatou 78400 (Sud),78400,78,48.886144,2.15481,1.0772575154469857,0.13083333333333333,0.13111656060593793,24.271325881964174,0,1,0,0,30253.0,5955.3,5.1,12842.0,14086.0,78.5,8.6
Chauffry 77169,77169,77,48.8190373,3.1857769,7.3061583650557065,0.1827777777777778,7.831635693708706,65.52383864412603,1,0,0,0,1401.5,160.35,9.375,531.75,610.5,78.175,9.6
Chaumes-en-Brie 77390,77390,77,48.6647753,2.842398,16.408276790034087,0.32416666666666666,2.599664981822121,47.139285472420156,1,0,0,0,1306.923076923077,171.4538461538462,8.330769230769231,493.0,544.3076923076923,79.67692307692307,7.069230769230769
Chaumontel 95270,95270,95,49.1302,2.43913,11.180275113629497,0.30666666666666664,2.0099790304009804,38.3492696754619,1,0,0,0,1927.75,278.60833333333335,7.425,761.8333333333334,842.9166666666666,78.55,8.875000000000002
Chaussy 95710,95710,95,49.121606,1.6941681,26.672341695952852,0.5086111111111111,12.352794764686172,59.827210366446224,1,0,0,0,640.0,115.10000000000001,8.766666666666666,234.66666666666666,288.6666666666667,78.56666666666666,11.633333333333333
Chavenay 78450,78450,78,48.8533873,1.9876695,4.278817696258195,0.16111111111111112,3.215234802056448,33.02643992139911,1,0,0,0,6381.0,676.8,8.2,2422.5,2528.5,74.35,7.25
Chaville 92370 (Marivel),92370,92,48.8182013,2.1971545,1.0844057468607315,0.14194444444444446,0.9047942271306191,22.588511380164874,1,0,0,0,20520.0,5780.3,3.6,8957.0,9860.0,80.6,8.1
Chaville 92370 (Petits Bois),92370,92,48.81147670000001,2.1831958,2.3513150382869052,0.1511111111111111,0.39136545778438725,23.3391151198716,1,0,0,0,20520.0,5780.3,3.6,8957.0,9860.0,80.6,8.1
Chaville 92370 (Ursine),92370,92,48.8057,2.1886,2.4970929387402556,0.17305555555555555,0.11307882469932135,23.284851242154755,1,0,0,0,20520.0,5780.3,3.6,8957.0,9860.0,80.6,8.1
Chelles 77500 (Arcades - Castermant),77500,77,48.8811,2.5929,0.4010545317821279,0.02361111111111111,1.0445182586225228,28.0019273460697,1,1,0,0,54917.0,3453.9,15.9,21810.0,23614.0,75.8,12.2
Chelles 77500 (Centre-ville - Gare - Abbesses),77500,77,48.8811,2.5929,0.4010545317821279,0.02361111111111111,1.0445182586225228,28.0019273460697,1,1,0,0,54917.0,3453.9,15.9,21810.0,23614.0,75.8,12.2
Chelles 77500 (Chantereine - Madeleine),77500,77,48.8929785,2.6082021,1.6971626827169772,0.085,2.7774721724476525,29.019787774182827,1,1,0,0,54917.0,3453.9,15.9,21810.0,23614.0,75.8,12.2
Chelles 77500 (Chelles Sud - Grande Prairie - Bords de Marne),77500,77,48.8811,2.5929,0.4010545317821279,0.02361111111111111,1.0445182586225228,28.0019273460697,1,1,0,0,54917.0,3453.9,15.9,21810.0,23614.0,75.8,12.2
Chelles 77500 (Les Coudreaux),77500,77,48.902438,2.5950909,2.571608350712776,0.12222222222222222,2.498069656309076,28.49799290066281,0,0,0,1,54917.0,3453.9,15.9,21810.0,23614.0,75.8,12.2
Chelles 77500 (Mont-Chalâts - Colline du Fort - La Tuilerie),77500,77,48.8811,2.5929,0.4010545317821279,0.02361111111111111,1.0445182586225228,28.0019273460697,1,1,0,0,54917.0,3453.9,15.9,21810.0,23614.0,75.8,12.2
Chelles 77500 (Noue-Brossard - Perichelles - Bel Air - Clos Roger),77500,77,48.8811,2.5929,0.4010545317821279,0.02361111111111111,1.0445182586225228,28.0019273460697,1,1,0,0,54917.0,3453.9,15.9,21810.0,23614.0,75.8,12.2
Chennevières-sur-Marne 94430 (Centre-ville),94430,94,48.7952841,2.5334495,0.4198090912599976,0.025555555555555557,1.4713893120095458,25.780932120927655,0,1,0,0,18321.0,3476.5,5.3,7283.0,8122.0,75.2,13.6
Chennevières-sur-Marne 94430 (La Maillarde),94430,94,48.7948878,2.5335677000000003,0.4645097828270417,0.030833333333333334,1.4810652382329912,25.79897555644644,0,1,0,0,18321.0,3476.5,5.3,7283.0,8122.0,75.2,13.6
Chennevières-sur-Marne 94430 (Le Fort),94430,94,48.80354060000001,2.5338588,0.5391669552487031,0.023333333333333334,1.7540477265428296,25.552879731803685,0,1,0,0,18321.0,3476.5,5.3,7283.0,8122.0,75.2,13.6
Chennevières-sur-Marne 94430 (Le Moulin),94430,94,48.7995472,2.5246789,0.5260701492537592,0.10388888888888889,0.9477169403899698,25.24773305649272,0,1,0,0,18321.0,3476.5,5.3,7283.0,8122.0,75.2,13.6
Chennevières-sur-Marne 94430 (Marne - Coteau Nord),94430,94,48.797,2.5405,0.6749640855714667,0.04805555555555555,1.9974240554547802,26.05439632410082,0,1,0,0,18321.0,3476.5,5.3,7283.0,8122.0,75.2,13.6
Chennevières-sur-Marne 94430 (Marne - Coteau Sud),94430,94,48.797,2.5405,0.6749640855714667,0.04805555555555555,1.9974240554547802,26.05439632410082,0,1,0,0,18321.0,3476.5,5.3,7283.0,8122.0,75.2,13.6
Chennevières-sur-Marne 94430 (Mon idée),94430,94,48.80101610000001,2.5325494,0.24297668170667647,0.03305555555555555,1.5384114399849,25.564389893586686,0,1,0,0,18321.0,3476.5,5.3,7283.0,8122.0,75.2,13.6
Chennevières-sur-Marne 94430 (Paris Chennevières),94430,94,48.797,2.5405,0.6749640855714667,0.04805555555555555,1.9974240554547802,26.05439632410082,0,1,0,0,18321.0,3476.5,5.3,7283.0,8122.0,75.2,13.6
Chennevières-sur-Marne 94500 (Marne - Coteau Nord),94500,94,48.8164,2.4937,2.3210513936692605,0.21916666666666668,1.339372296744198,23.410569025912316,0,1,0,0,77630.0,6869.9,11.3,30328.0,32378.0,74.3,14.5
Chenoise 77160,77160,77,48.6172325,3.186276,10.372139031736866,0.23916666666666667,10.910263167989147,70.00680753240883,1,0,0,0,1676.3,119.87,14.739999999999998,731.5,845.3,76.82,11.47
Cheptainville 91630,91630,91,48.550704,2.2646803,4.398675842792495,0.15472222222222223,2.5484422723597957,39.63627172155285,0,1,0,0,2119.6,337.09999999999997,6.640000000000001,813.8,870.8,78.78,6.5
Chessy 77700,77700,77,48.87987920000001,2.7658363,2.575000308568945,0.14666666666666667,1.632418479816118,38.044164105979355,0,1,0,0,6740.6,1145.92,6.4399999999999995,2620.4,3084.8,81.0,8.260000000000002
Chevilly-Larue 94550 (Larue),94550,94,48.7714153,2.3469255,1.3444599177863605,0.08,1.5372421353943149,21.68250113089335,0,0,0,1,19491.0,4618.7,4.2,7814.0,8366.0,74.6,10.0
Chevilly-Larue 94550 (Sorbiers - Saussaye),94550,94,48.7648,2.3503,1.9926787897194806,0.22833333333333333,1.2955731670136323,22.084864191867634,0,0,0,1,19491.0,4618.7,4.2,7814.0,8366.0,74.6,10.0
Chevrainvilliers 77760,77760,77,48.24450170000001,2.6156080000000004,7.011515208412177,0.16583333333333333,5.808218154647146,72.13332710181226,1,0,0,0,598.875,48.85625,12.3625,251.1875,321.0625,78.15625000000001,7.750000000000002
Chevreuse 78460,78460,78,48.7079689,2.0408005,8.633092116747562,0.29444444444444445,2.3145435450281546,34.29861249032893,0,1,0,0,3117.0,243.4,11.05,1273.5,1451.0,73.75,9.25
Chevru 77320,77320,77,48.733697,3.2696281000000003,16.109226506973066,0.3497222222222222,16.21084670065836,72.2713896422665,1,0,0,0,742.2727272727273,50.12727272727273,13.9,295.59090909090907,351.6363636363636,77.25000000000001,10.750000000000002
Chevry-Cossigny 77173,77173,77,48.7244459,2.6617094,4.171646404487633,0.20555555555555555,5.4052710478144865,34.75860848406918,1,1,0,0,3952.0,235.9,16.8,1491.0,1564.0,79.4,7.3
Chilly-Mazarin 91380,91380,91,48.7026161,2.3123582000000003,1.4057126740853587,0.12555555555555556,0.3960612523897263,26.42040531762162,0,1,0,0,20181.0,3623.2,5.6,8293.0,9020.0,80.6,11.0
Chilly-Mazarin 91380 (Centre-ville),91380,91,48.7005761,2.3082332,1.0273533256964784,0.06694444444444445,0.03111656529051826,26.600289686971628,0,1,0,0,20181.0,3623.2,5.6,8293.0,9020.0,80.6,11.0
Chilly-Mazarin 91380 (Division Leclerc),91380,91,48.6996459,2.3158649,1.4955906887072659,0.09333333333333334,0.6017336623935883,26.624883788777304,0,1,0,0,20181.0,3623.2,5.6,8293.0,9020.0,80.6,11.0
Chilly-Mazarin 91380 (Gravigny),91380,91,48.7005761,2.3082332,1.0273533256964784,0.06694444444444445,0.03111656529051826,26.600289686971628,0,1,0,0,20181.0,3623.2,5.6,8293.0,9020.0,80.6,11.0
Chilly-Mazarin 91380 (Nord),91380,91,48.7149,2.3164,2.600999326206053,0.16916666666666666,1.702085271961833,25.487950715578876,0,1,0,0,20181.0,3623.2,5.6,8293.0,9020.0,80.6,11.0
Chilly-Mazarin 91380 (Pavillons Sud),91380,91,48.7149,2.3164,2.600999326206053,0.16916666666666666,1.702085271961833,25.487950715578876,0,1,0,0,20181.0,3623.2,5.6,8293.0,9020.0,80.6,11.0
Choisel 78460,78460,78,48.6872628,2.0185119,10.114045582943033,0.33416666666666667,4.2468589488861745,36.502410299283554,0,1,0,0,3117.0,243.4,11.05,1273.5,1451.0,73.75,9.25
Choisy-en-Brie 77320,77320,77,48.7592152,3.2170240000000003,11.319634218373094,0.2602777777777778,11.442504963841968,68.25335413939787,1,0,0,0,742.2727272727273,50.12727272727273,13.9,295.59090909090907,351.6363636363636,77.25000000000001,10.750000000000002
Choisy-le-Roi 94600,94600,94,48.76302379999999,2.4093664,0.2646267689024776,0.042777777777777776,0.17105754849201033,22.924534899844765,0,1,0,0,45331.0,8348.3,5.4,19018.0,20518.0,77.8,15.7
Choisy-le-Roi 94600 (Centre-ville - Parc Prairie - Hautes Bornes),94600,94,48.7685,2.4187,1.0607723676435865,0.09833333333333333,0.7508367479308559,22.82222676610194,0,1,0,0,45331.0,8348.3,5.4,19018.0,20518.0,77.8,15.7
Choisy-le-Roi 94600 (Gondoles),94600,94,48.76990470000001,2.4190961,1.1677096340951645,0.1213888888888889,0.8854691559374662,22.75519472359633,0,1,0,0,45331.0,8348.3,5.4,19018.0,20518.0,77.8,15.7
Château-Landon 77570,77570,77,48.1501591,2.7006781,13.051410611441746,0.30916666666666665,4.325925647909718,83.3793940193952,1,0,0,0,763.2857142857143,41.08571428571429,16.02857142857143,315.42857142857144,409.42857142857144,78.35714285714286,10.014285714285714
Châteaufort 78117,78117,78,48.73585,2.09032,6.290270843277367,0.2225,3.8922412990981234,30.535594875696543,0,1,0,0,1282.0,288.35,4.45,457.5,489.0,77.75,6.8
Châtenay-Malabry 92290 (Butte Rouge),92290,92,48.77372620000001,2.2717805,0.837441536168133,0.09472222222222222,1.0135723361907516,22.166454972032305,0,1,0,0,33286.0,5217.2,6.4,14089.0,15262.0,74.2,12.0
Châtenay-Malabry 92290 (Centre-ville),92290,92,48.7657856,2.2810422000000004,0.32345147404818714,0.05527777777777778,1.6073594063383565,22.4601388801338,0,1,0,0,33286.0,5217.2,6.4,14089.0,15262.0,74.2,12.0
Châtenay-Malabry 92290 (Justice),92290,92,48.76664810000001,2.263826,0.9761312627248107,0.06972222222222223,1.9895012381614892,22.723830561280355,0,1,0,0,33286.0,5217.2,6.4,14089.0,15262.0,74.2,12.0
Châtenay-Malabry 92290 (Malabry),92290,92,48.77372620000001,2.2717805,0.837441536168133,0.09472222222222222,1.0135723361907516,22.166454972032305,0,1,0,0,33286.0,5217.2,6.4,14089.0,15262.0,74.2,12.0
Châtenay-Malabry 92290 (Petit Chatenay - Voltaire - Croix Blanche),92290,92,48.7651,2.2665,0.8085135941493338,0.05555555555555555,2.0094982866120326,22.75984284645205,0,1,0,0,33286.0,5217.2,6.4,14089.0,15262.0,74.2,12.0
Châtenay-Malabry 92290 (Robinson - Aulnay),92290,92,48.7651,2.2665,0.8085135941493338,0.05555555555555555,2.0094982866120326,22.75984284645205,0,1,0,0,33286.0,5217.2,6.4,14089.0,15262.0,74.2,12.0
Châtenay-sur-Seine 77126,77126,77,48.4176813,3.0961472000000003,10.678571608294758,0.2758333333333333,8.540799340913553,75.34509397101539,1,0,0,0,520.3333333333334,39.23333333333333,13.466666666666669,203.66666666666666,230.0,78.26666666666667,10.166666666666666
Châtillon 92320 (Berthelot - Avenue de Paris),92320,92,48.8024,2.2935,1.3465699814483696,0.09638888888888889,0.38314559316749547,20.34313980848962,0,0,0,1,37355.0,12792.8,2.9,16520.0,17822.0,80.7,9.7
Châtillon 92320 (Roissys - Béranger),92320,92,48.8024,2.2935,1.3465699814483696,0.09638888888888889,0.38314559316749547,20.34313980848962,0,0,0,1,37355.0,12792.8,2.9,16520.0,17822.0,80.7,9.7
Châtillon 92320 (Savoie - Brossolette),92320,92,48.8024,2.2935,1.3465699814483696,0.09638888888888889,0.38314559316749547,20.34313980848962,0,0,0,1,37355.0,12792.8,2.9,16520.0,17822.0,80.7,9.7
Châtillon 92320 (Stade),92320,92,48.8082194,2.2891121,1.1938655428540315,0.10361111111111111,0.38390591779061845,20.159061714973745,0,0,0,1,37355.0,12792.8,2.9,16520.0,17822.0,80.7,9.7
Châtillon 92320 (Vieux Bourg - Malraux),92320,92,48.8024,2.2935,1.3465699814483696,0.09638888888888889,0.38314559316749547,20.34313980848962,0,0,0,1,37355.0,12792.8,2.9,16520.0,17822.0,80.7,9.7
Chérence 95510,95510,95,49.087793100000006,1.6753203,26.638095374383575,0.6205555555555555,8.758400410290983,59.11525409223453,1,0,0,0,469.14285714285717,80.75714285714285,6.785714285714286,197.71428571428572,250.0,77.45714285714287,10.471428571428573
Clairefontaine-en-Yvelines 78120,78120,78,48.6113917,1.9131989,7.776235991313153,0.22444444444444445,6.952351085367598,46.17615010847676,1,0,0,0,9734.666666666666,281.0333333333333,32.96666666666667,4374.333333333333,4800.333333333333,77.63333333333334,8.8
Clamart 92140 (Centre-ville),92140,92,48.800368,2.2630292,0.02746618160478368,0.0,0.9643597430280132,21.028703075245428,0,0,0,1,52971.0,6040.0,8.8,22216.0,24320.0,78.7,10.4
Clamart 92140 (Galvents - Corby),92140,92,48.803,2.2669,0.38063392524229755,0.03777777777777778,1.0385178075520867,20.825561620179474,0,0,0,1,52971.0,6040.0,8.8,22216.0,24320.0,78.7,10.4
Clamart 92140 (Gare),92140,92,48.81383020000001,2.2745584,1.078910558218196,0.11333333333333333,0.04578966249633767,20.22188366052123,1,0,0,0,52971.0,6040.0,8.8,22216.0,24320.0,78.7,10.4
Clamart 92140 (Jardin Parisien),92140,92,48.7928848,2.2557496,1.0159328789980893,0.08166666666666667,0.6289819848657366,21.538910494478596,0,0,0,1,52971.0,6040.0,8.8,22216.0,24320.0,78.7,10.4
Clamart 92140 (Percy - Schneider),92140,92,48.803,2.2669,0.38063392524229755,0.03777777777777778,1.0385178075520867,20.825561620179474,0,0,0,1,52971.0,6040.0,8.8,22216.0,24320.0,78.7,10.4
Clamart 92140 (Trivaux - La Garenne),92140,92,48.7820486,2.2305572,3.164785079724906,0.205,0.1645233803249385,22.737915668552887,0,0,0,1,52971.0,6040.0,8.8,22216.0,24320.0,78.7,10.4
Claye-Souilly 77410,77410,77,48.94608710000001,2.6883703,5.858261809891577,0.19583333333333333,4.721349771201202,34.93924188783511,1,1,0,0,2232.4545454545455,210.71818181818182,8.618181818181819,854.7272727272727,911.2727272727273,79.42727272727272,6.945454545454544
Clichy 92110 (Fournier - Pasteur - Bac d'Asnières),92110,92,48.9002,2.3095,0.5296278239152902,0.04,0.4357730471854547,19.505925685226703,0,0,1,0,61070.0,19827.9,3.1,27883.0,31067.0,79.5,13.9
Clichy-sous-Bois 93390,93390,93,48.910939,2.5460722,0.6914477608744396,0.06972222222222223,0.3422129500788335,26.1736875016346,0,0,0,1,29348.0,7429.9,4.0,8936.0,9381.0,60.6,21.2
Clichy-sous-Bois 93390 (La Butte - Les Limites),93390,93,48.9102,2.5532,0.6745832585314285,0.044444444444444446,0.5631505383226393,26.50744405485497,0,0,0,1,29348.0,7429.9,4.0,8936.0,9381.0,60.6,21.2
Clichy-sous-Bois 93390 (Les Trois Châteaux),93390,93,48.9102,2.5532,0.6745832585314285,0.044444444444444446,0.5631505383226393,26.50744405485497,0,0,0,1,29348.0,7429.9,4.0,8936.0,9381.0,60.6,21.2
Cléry-en-Vexin 95420,95420,95,49.1273725,1.8401715,18.012329565287235,0.34944444444444445,7.979367038150126,52.13483959949513,1,0,0,0,780.2307692307693,77.71538461538461,8.061538461538463,317.46153846153845,359.7692307692308,78.75384615384615,7.446153846153846
Coignières 78310,78310,78,48.7511787,1.9201632,2.649371370209822,0.1597222222222222,0.8580967546964214,38.87111172652957,1,0,0,0,11337.5,1364.25,8.3,4659.5,5120.5,75.05,10.65
Colombes 92700 (Agent Sarre),92700,92,48.9188,2.254,0.4761867307090937,0.06833333333333333,0.6237896942765427,21.431886586889064,1,0,0,0,85177.0,10906.1,7.8,34761.0,37800.0,76.4,13.7
Colombes 92700 (Centre-ville),92700,92,48.9121744,2.2856861,0.6433097952249601,0.06305555555555556,0.7404019134630103,20.385679292224822,1,0,0,0,85177.0,10906.1,7.8,34761.0,37800.0,76.4,13.7
Colombes 92700 (Charles de Gaulle),92700,92,48.9188,2.254,0.4761867307090937,0.06833333333333333,0.6237896942765427,21.431886586889064,1,0,0,0,85177.0,10906.1,7.8,34761.0,37800.0,76.4,13.7
Colombes 92700 (Europe),92700,92,48.9248284,2.2396478,1.4286343912190567,0.12027777777777778,1.3578015848471048,22.125169935148453,0,0,0,1,85177.0,10906.1,7.8,34761.0,37800.0,76.4,13.7
Colombes 92700 (Fossés Jean Bouvier),92700,92,48.9188,2.254,0.4761867307090937,0.06833333333333333,0.6237896942765427,21.431886586889064,1,0,0,0,85177.0,10906.1,7.8,34761.0,37800.0,76.4,13.7
Colombes 92700 (Grèves Plateau),92700,92,48.9188,2.254,0.4761867307090937,0.06833333333333333,0.6237896942765427,21.431886586889064,1,0,0,0,85177.0,10906.1,7.8,34761.0,37800.0,76.4,13.7
Colombes 92700 (Henri Martin Estienne d'Orves),92700,92,48.9188,2.254,0.4761867307090937,0.06833333333333333,0.6237896942765427,21.431886586889064,1,0,0,0,85177.0,10906.1,7.8,34761.0,37800.0,76.4,13.7
Colombes 92700 (La Petite Garenne),92700,92,48.9188,2.254,0.4761867307090937,0.06833333333333333,0.6237896942765427,21.431886586889064,1,0,0,0,85177.0,10906.1,7.8,34761.0,37800.0,76.4,13.7
Colombes 92700 (Les Vallées),92700,92,48.91490579999999,2.2577705000000003,0.7716755063796081,0.059166666666666666,0.14482796697285918,21.15734486935533,1,0,0,0,85177.0,10906.1,7.8,34761.0,37800.0,76.4,13.7
Colombes 92700 (Stade),92700,92,48.9313701,2.2607408,1.0732097588716991,0.1075,0.03656384751285764,21.86677897860317,1,0,0,0,85177.0,10906.1,7.8,34761.0,37800.0,76.4,13.7
Combs-la-Ville 77380 (Bois l'Evèque),77380,77,48.6528358,2.5765243,1.1431373120343267,0.06277777777777778,2.7135942171270644,35.03467979605664,0,1,0,0,22383.0,1545.8,14.5,8667.0,9222.0,76.7,11.8
Combs-la-Ville 77380 (Gare),77380,77,48.6662124,2.5484239,1.4133904678931557,0.059722222222222225,0.1986518115873169,33.11894342298967,0,1,0,0,22383.0,1545.8,14.5,8667.0,9222.0,76.7,11.8
Combs-la-Ville 77380 (Prévert),77380,77,48.6555015,2.5641148,0.2976250506859349,0.011666666666666667,1.8414541405929654,34.401678480631325,0,1,0,0,22383.0,1545.8,14.5,8667.0,9222.0,76.7,11.8
Combs-la-Ville 77380 (République),77380,77,48.6646994,2.564877,0.7431184781117791,0.04027777777777778,1.325190563835556,33.811401839769665,0,1,0,0,22383.0,1545.8,14.5,8667.0,9222.0,76.7,11.8
Combs-la-Ville 77380 (Vieux Pays),77380,77,48.665,2.5696,0.899482577181541,0.0625,1.6560740135494643,33.96670564876456,0,1,0,0,22383.0,1545.8,14.5,8667.0,9222.0,76.7,11.8
Conches-sur-Gondoire 77600,77600,77,48.8543635,2.7219163,2.7208439840218426,0.15166666666666667,2.198083192371541,35.23959716238289,0,1,0,0,5931.333333333333,945.7166666666667,5.2666666666666675,2266.0,2388.0,77.83333333333333,8.916666666666666
Condé-Sainte-Libiaire 77450,77450,77,48.8972333,2.8304193,5.167398364113542,0.18222222222222223,0.7677694471178528,42.25331230225729,1,0,0,0,1835.25,563.3875,4.85,714.25,786.125,79.025,7.75
Condé-sur-Vesgre 78113,78113,78,48.74178870000001,1.6621733,15.787357397130021,0.33055555555555555,7.449156182810081,55.21540531609502,1,0,0,0,494.3333333333333,54.70000000000001,7.833333333333332,200.33333333333334,268.8333333333333,78.23333333333333,7.266666666666666
Condécourt 95450,95450,95,49.041871,1.9400988000000001,6.657223966116934,0.28944444444444445,4.198393097614123,41.528927279548746,1,0,0,0,719.6428571428571,101.04285714285717,7.885714285714285,279.14285714285717,305.07142857142856,78.22142857142858,8.014285714285714
Conflans-Sainte-Honorine 78700 (Chennevières),78700,78,49.0053845,2.1164112,2.1296077129670783,0.16416666666666666,1.6755602005944863,31.05876031127988,1,0,0,0,35846.0,3620.8,9.9,14197.0,15381.0,75.7,9.0
Conflans-Sainte-Honorine 78700 (Fin-d'Oise),78700,78,48.9906307,2.0756166,1.3614753150407624,0.09027777777777778,0.20300859052705744,31.938405487273634,1,1,0,0,35846.0,3620.8,9.9,14197.0,15381.0,75.7,9.0
Conflans-Sainte-Honorine 78700 (Montaigne),78700,78,48.997838,2.0838083,0.8809391218514969,0.08611111111111111,0.9960568304736908,31.974238609560324,1,1,0,0,35846.0,3620.8,9.9,14197.0,15381.0,75.7,9.0
Conflans-Sainte-Honorine 78700 (Plateau-du-Moulin - Quai de Gaillon),78700,78,48.9918942,2.1147009,1.542099558914044,0.1025,1.3460321247326716,30.308008311727395,1,0,0,0,35846.0,3620.8,9.9,14197.0,15381.0,75.7,9.0
Conflans-Sainte-Honorine 78700 (Romagné - Renouveau),78700,78,49.0023961,2.0992631,1.0818898748950452,0.11861111111111111,0.6504281301293697,31.576059731639404,1,0,0,0,35846.0,3620.8,9.9,14197.0,15381.0,75.7,9.0
Conflans-Sainte-Honorine 78700 (Vieux Conflans),78700,78,48.9969316,2.0983899,0.5217910525192928,0.08166666666666667,0.05617507716346587,31.287563699268897,1,0,0,0,35846.0,3620.8,9.9,14197.0,15381.0,75.7,9.0
Congis-sur-Thérouanne 77440,77440,77,49.0064755,2.9742277,8.315054312383177,0.3061111111111111,2.62538263192441,54.210530273226055,1,0,0,0,908.2307692307693,120.54615384615384,9.607692307692307,341.0769230769231,384.9230769230769,78.73846153846155,11.615384615384615
Corbeil-Essonnes 91100,91100,91,48.6137734,2.4818087,0.6504203237834405,0.07111111111111111,0.6555387355484525,35.12888626846866,0,1,0,0,28365.0,2925.6,7.8,11288.0,12424.0,74.9,10.65
Corbeil-Essonnes 91100 (Centre Essonnes),91100,91,48.61400870000001,2.473565,0.4782047343851254,0.07694444444444444,0.07961405094407874,34.932351750281306,0,1,0,0,28365.0,2925.6,7.8,11288.0,12424.0,74.9,10.65
Corbeil-Essonnes 91100 (Centre-ville),91100,91,48.61400870000001,2.473565,0.4782047343851254,0.07694444444444444,0.07961405094407874,34.932351750281306,0,1,0,0,28365.0,2925.6,7.8,11288.0,12424.0,74.9,10.65
Corbeil-Essonnes 91100 (Coquibus),91100,91,48.61281810000001,2.4521465,1.7356627807516267,0.12277777777777778,1.1091529028412248,34.62074526585449,0,1,0,0,28365.0,2925.6,7.8,11288.0,12424.0,74.9,10.65
Corbeil-Essonnes 91100 (Hermitage),91100,91,48.5895,2.451,2.8854039995625578,0.17444444444444446,0.8697479641136366,36.56940080282341,0,1,0,0,28365.0,2925.6,7.8,11288.0,12424.0,74.9,10.65
Corbeil-Essonnes 91100 (Montconseil),91100,91,48.5961256,2.4747538,1.527444906532673,0.09916666666666667,1.0020122852736497,36.43207788884683,0,1,0,0,28365.0,2925.6,7.8,11288.0,12424.0,74.9,10.65
Corbeil-Essonnes 91100 (Moulin Galant),91100,91,48.5862473,2.4734753,2.628765562614216,0.16555555555555557,0.10082260908604439,37.23872523057305,0,1,0,0,28365.0,2925.6,7.8,11288.0,12424.0,74.9,10.65
Corbeil-Essonnes 91100 (Pressoir - Prompt),91100,91,48.586051,2.476925,2.650165478138306,0.1388888888888889,0.28151243662981235,37.322063054271766,0,1,0,0,28365.0,2925.6,7.8,11288.0,12424.0,74.9,10.65
Corbeil-Essonnes 91100 (Rive droite),91100,91,48.6147009,2.4847397,0.8826377786558981,0.06833333333333333,0.8819592056120653,35.119575397475714,0,1,0,0,28365.0,2925.6,7.8,11288.0,12424.0,74.9,10.65
Corbeil-Essonnes 91100 (Robinson),91100,91,48.6056156,2.4626195,1.0445114371113178,0.06583333333333333,0.013736600112775743,35.40683373396496,0,1,0,0,28365.0,2925.6,7.8,11288.0,12424.0,74.9,10.65
Corbeil-Essonnes 91100 (Tarterêts),91100,91,48.6137588,2.4587072,1.2951816845224116,0.09333333333333334,0.9531678562257454,34.66065726505482,0,1,0,0,28365.0,2925.6,7.8,11288.0,12424.0,74.9,10.65
Corbreuse 91410,91410,91,48.49803710000001,1.9606122,16.478088744472817,0.38861111111111113,4.92580349980773,52.31767208544294,1,1,0,0,1669.6363636363637,90.48181818181818,12.509090909090911,676.0,749.2727272727273,78.15454545454546,9.454545454545455
Cormeilles-en-Parisis 95240 (Alsace Lorraine),95240,95,48.966752899999996,2.1907153999999998,3.2263400618012152,0.1738888888888889,0.2783345380081719,25.94639028047349,1,0,0,0,24161.0,2849.2,8.5,9539.0,10143.0,78.8,9.9
Cormeilles-en-Parisis 95240 (Bois Rochefort),95240,95,48.9545722,2.1865574,3.5142996401030007,0.21194444444444444,1.6285031864526467,25.410578530185127,1,0,0,0,24161.0,2849.2,8.5,9539.0,10143.0,78.8,9.9
Cormeilles-en-Parisis 95240 (Champs Guillaume),95240,95,48.963406,2.196628,3.2868667224064154,0.18694444444444444,0.6122441682447843,25.551370414739356,1,0,0,0,24161.0,2849.2,8.5,9539.0,10143.0,78.8,9.9
Cormeilles-en-Parisis 95240 (Haut et Centre),95240,95,48.9774648,2.2046854,1.8605335459187389,0.12694444444444444,1.2931497569851558,26.151550715581436,1,0,0,0,24161.0,2849.2,8.5,9539.0,10143.0,78.8,9.9
Cormeilles-en-Parisis 95240 (Noyer de l'Image),95240,95,48.9645533,2.2060642,2.7510554007886263,0.16972222222222222,1.0228975758582446,25.310132408363096,1,0,0,0,24161.0,2849.2,8.5,9539.0,10143.0,78.8,9.9
Cormeilles-en-Parisis 95240 (Val d'Or),95240,95,48.973716100000004,2.1888359,2.55733318205831,0.1363888888888889,0.6713720273752636,26.425712513774517,1,0,0,0,24161.0,2849.2,8.5,9539.0,10143.0,78.8,9.9
Cormeilles-en-Vexin 95830,95830,95,49.115732200000004,2.020926,9.817830947509009,0.2613888888888889,4.090872754377217,42.88934609394513,1,0,0,0,987.0,140.14999999999998,6.949999999999999,347.0,374.0,78.25,6.45
Coubron 93470,93470,93,48.9166,2.5792200000000003,2.591991536842459,0.13027777777777777,2.221977413776402,28.031812000305788,0,0,0,1,4833.0,1167.4,4.1,1859.0,1973.0,75.4,8.9
Couilly-Pont-aux-Dames 77860,77860,77,48.88401270000001,2.8587036,5.897852618713311,0.15361111111111111,0.3542425498787417,43.873339954728664,1,0,0,0,3751.0,580.4333333333334,6.633333333333334,1420.0,1535.3333333333333,78.73333333333333,7.266666666666666
Coulombs-en-Valois 77840,77840,77,49.0690714,3.1260295,21.319803980556053,0.4880555555555556,5.27698199519036,66.25336567691284,1,0,0,0,898.0,52.03333333333333,16.099999999999998,337.6666666666667,386.0,74.10000000000001,12.299999999999999
Coulommiers 77120,77120,77,48.81213010000001,3.0843818,0.2212866048533512,0.025555555555555557,0.5007778070777261,58.65109946639514,1,0,0,0,2886.1111111111113,244.65555555555557,15.0,1222.7777777777778,1393.0,76.78888888888889,9.266666666666667
Coulommiers 77120 (Centre-ville),77120,77,48.8077066,3.0819816,0.7237259725591072,0.08,0.14937009107676766,58.5207903509305,1,0,0,0,2886.1111111111113,244.65555555555557,15.0,1222.7777777777778,1393.0,76.78888888888889,9.266666666666667
Coulommiers 77120 (Chemin de Fer),77120,77,48.7607,3.0464,6.568331938512918,0.20944444444444443,5.87198152497227,56.7530859742593,1,0,0,0,2886.1111111111113,244.65555555555557,15.0,1222.7777777777778,1393.0,76.78888888888889,9.266666666666667
Coulommiers 77120 (Ville haute),77120,77,48.7607,3.0464,6.568331938512918,0.20944444444444443,5.87198152497227,56.7530859742593,1,0,0,0,2886.1111111111113,244.65555555555557,15.0,1222.7777777777778,1393.0,76.78888888888889,9.266666666666667
Coulommiers 77129 (Centre-ville),77129,77,49.0698,3.1265,21.395588942954873,0.49166666666666664,5.268864510979448,66.31390373740496,1,0,0,0,,,,,,,
Coupvray 77700,77700,77,48.8919254,2.7942557,3.4847911865294297,0.13111111111111112,1.7064068072066798,39.931390842339766,1,0,0,0,6740.6,1145.92,6.4399999999999995,2620.4,3084.8,81.0,8.260000000000002
Courbevoie 92400 (Bécon),92400,92,48.9028583,2.2747813,1.0084634160994563,0.10916666666666666,0.4785459286913311,20.241685783529654,1,0,0,0,81719.0,19596.9,4.2,38931.0,47958.0,80.2,8.9
Courbevoie 92400 (Faubourg de l'Arche),92400,92,48.8963239,2.240112,0.5896362422565734,0.12194444444444444,0.037941878268783646,21.015938966712852,0,0,0,1,81719.0,19596.9,4.2,38931.0,47958.0,80.2,8.9
Courbevoie 92400 (Hôtel de ville),92400,92,48.8951896,2.2560742,0.34556624281710024,0.03944444444444444,0.6794053898284271,20.483333638448833,1,0,0,0,81719.0,19596.9,4.2,38931.0,47958.0,80.2,8.9
Courbevoie 92400 (Marceau République),92400,92,48.8986527,2.2465576,0.6159321977702623,0.0775,0.11764389842249025,20.878467838371417,1,0,0,0,81719.0,19596.9,4.2,38931.0,47958.0,80.2,8.9
Courcouronnes 91080 (Bérégovoy Nord),91080,91,48.6143,2.4076,3.0074396417521325,0.15861111111111112,2.031799912487645,33.87671211982482,0,1,0,0,,,,,,,
Courcouronnes 91080 (Bérégovoy Sud),91080,91,48.6143,2.4076,3.0074396417521325,0.15861111111111112,2.031799912487645,33.87671211982482,0,1,0,0,,,,,,,
Courcouronnes 91080 (Hôpital - Marchais Guesdon - Orme à Martin),91080,91,48.6143,2.4076,3.0074396417521325,0.15861111111111112,2.031799912487645,33.87671211982482,0,1,0,0,,,,,,,
Courcouronnes 91080 (Marquis de Raies),91080,91,48.6293791,2.4137565,2.1776601135764597,0.14,0.8911465548882218,32.67664487529216,0,1,0,0,,,,,,,
Courdimanche 95800,95800,95,49.035489399999996,1.999555,2.5214638995277427,0.11694444444444445,1.6117536713960576,38.14349124706718,1,1,0,0,6681.0,1199.5,5.6,2487.0,2662.0,77.7,8.9
Courgent 78790,78790,78,48.894186,1.6600858,11.16406673389204,0.3705555555555556,7.231143230968916,54.12039629940523,1,0,0,0,586.0,98.37,5.970000000000001,224.7,265.9,78.47,8.09
Courpalay 77540,77540,77,48.6496903,2.9612809,20.411801183828576,0.4533333333333333,6.686818923000358,54.71907016556417,1,0,0,0,1122.7142857142858,174.21428571428572,16.242857142857144,432.14285714285717,478.57142857142856,79.71428571428571,7.814285714285714
Courson-Monteloup 91680,91680,91,48.59226029999999,2.1451135,7.366058386748377,0.24972222222222223,3.6200525778389787,38.348128254236954,0,1,0,0,1937.0,204.45,8.3,787.5,859.0,79.35,7.6
Courtry 77181,77181,77,48.9158,2.60248,3.226250185504347,0.1761111111111111,3.5892924984791637,29.238522338299482,0,0,0,1,3979.5,889.8,5.45,1421.0,1505.0,78.9,10.0
Coutençon 77154,77154,77,48.4710717,2.9977386000000004,8.846322013380542,0.2363888888888889,10.178061441793442,66.59341305528831,1,0,0,0,456.0,38.95,13.4,178.5,206.5,79.85,9.2
Crespières 78121,78121,78,48.8821534,1.9202924,7.695254238312499,0.2025,3.7681152931819715,37.18111618852336,1,0,0,0,1612.0,108.1,14.9,622.0,690.0,71.3,6.9
Crisenoy 77390,77390,77,48.5961401,2.7431226000000004,8.491676236915737,0.22805555555555557,8.084564299010653,45.794913026162504,1,0,0,0,1306.923076923077,171.4538461538462,8.330769230769231,493.0,544.3076923076923,79.67692307692307,7.069230769230769
Croissy-Beaubourg 77183,77183,77,48.8278734,2.6584023,2.1962823727470604,0.13194444444444445,1.3309950029785111,31.632004845923667,0,1,0,0,1987.0,170.9,11.6,808.0,829.0,78.7,9.1
Croissy-sur-Seine 78290,78290,78,48.8791554,2.1327881,1.6736261858647508,0.10722222222222222,1.2228397164890505,25.223916150408858,0,1,0,0,9701.0,2820.1,3.4,4002.0,4360.0,74.9,6.7
Crosne 91560,91560,91,48.72046,2.4645591,2.0310759357964634,0.11083333333333334,1.3694453114707803,26.8782640356868,0,1,0,0,9231.0,3722.2,2.5,3703.0,3981.0,77.9,9.8
Crécy-la-Chapelle 77580,77580,77,48.8578447,2.9086092,8.986105702191875,0.2136111111111111,0.28406535423623763,46.90633435575508,1,0,0,0,1329.25,132.22500000000002,10.083333333333334,518.9166666666666,596.0,80.05,7.433333333333334
Crégy-lès-Meaux 77124,77124,77,48.9779,2.87437,2.8308171334855876,0.17972222222222223,2.2953627871535396,47.013395961186625,1,0,0,0,3506.0,602.15,8.175,1227.75,1310.5,73.625,9.924999999999999
Créteil 94000,94000,94,48.7771486,2.4530731,0.5858380008676154,0.04138888888888889,0.5550227484814537,23.325947680881775,0,0,1,0,90605.0,7906.2,11.5,37000.0,38809.0,74.4,14.7
Créteil 94000 (Bleuets - Bordières - Pinsons),94000,94,48.800466,2.4588837000000003,1.6364173452892314,0.13722222222222222,0.8084949541010139,22.529504056331596,0,0,1,0,90605.0,7906.2,11.5,37000.0,38809.0,74.4,14.7
Créteil 94000 (Bords de Marne),94000,94,48.8095574,2.4609616,1.8354197238101437,0.18833333333333332,0.9409597849846728,22.292958668684545,0,1,0,0,90605.0,7906.2,11.5,37000.0,38809.0,74.4,14.7
Créteil 94000 (Buttes - Halage),94000,94,48.804883200000006,2.4657991000000004,2.0330583921875136,0.15083333333333335,0.5290821659168814,22.62611477290042,0,1,0,0,90605.0,7906.2,11.5,37000.0,38809.0,74.4,14.7
Créteil 94000 (Centre ancien),94000,94,48.78646610000001,2.4579132,1.3690151645460793,0.09555555555555556,0.6730863827221385,23.058772251994128,0,0,1,0,90605.0,7906.2,11.5,37000.0,38809.0,74.4,14.7
Créteil 94000 (Champeval),94000,94,48.7965908,2.4493852,1.2239585210439836,0.12055555555555555,0.01704556431436998,22.34976090470019,0,0,1,0,90605.0,7906.2,11.5,37000.0,38809.0,74.4,14.7
Créteil 94000 (Haut du Mont-Mesly),94000,94,48.7833,2.4667,1.1344237162145643,0.12666666666666668,0.6578952483242523,23.500245910128786,0,0,1,0,90605.0,7906.2,11.5,37000.0,38809.0,74.4,14.7
Créteil 94000 (Lévrière - Haye aux Moines),94000,94,48.7855469,2.4495462000000003,1.4645043666917674,0.08916666666666667,0.49728402900484603,22.823792051535136,0,0,1,0,90605.0,7906.2,11.5,37000.0,38809.0,74.4,14.7
Créteil 94000 (Val de Brie),94000,94,48.7771486,2.4530731,0.5858380008676154,0.04138888888888889,0.5550227484814537,23.325947680881775,0,0,1,0,90605.0,7906.2,11.5,37000.0,38809.0,74.4,14.7
Dagny 77320,77320,77,48.6937,3.3447,14.986639338876573,0.3244444444444444,15.664507873818764,78.22872086994973,1,0,0,0,742.2727272727273,50.12727272727273,13.9,295.59090909090907,351.6363636363636,77.25000000000001,10.750000000000002
Dammarie-les-Lys 77190 (Château Gaillard - Roles - Justice),77190,77,48.5167,2.65,1.599705167033411,0.11555555555555555,1.2290084115003759,47.8206065535071,1,1,0,0,11023.0,1075.95,10.5,4519.0,4859.5,73.75,11.100000000000001
Dammarie-les-Lys 77190 (L'Abbaye du Lys - Centre-ville - Soubiron),77190,77,48.5167,2.65,1.599705167033411,0.11555555555555555,1.2290084115003759,47.8206065535071,1,1,0,0,11023.0,1075.95,10.5,4519.0,4859.5,73.75,11.100000000000001
Dammartin-en-Goële 77230,77230,77,49.0547758,2.6835682,13.435233144191375,0.37194444444444447,2.7285382745474918,40.25879289342881,1,0,0,0,2079.6153846153848,272.3769230769231,7.892307692307693,773.1538461538462,836.9230769230769,79.99230769230768,9.299999999999999
Dammartin-en-Serve 78111,78111,78,48.9039102,1.6195257,11.352005727970596,0.3375,7.205726635816681,56.96220745817311,1,0,0,0,1264.0,90.4,14.0,470.0,516.0,78.6,9.3
Dammartin-sur-Tigeaux 77163,77163,77,48.8167695,2.9223782000000003,11.140295154860256,0.30666666666666664,2.3971806041366044,47.90171364925736,1,0,0,0,964.6666666666666,87.13333333333333,10.966666666666667,366.0,409.6666666666667,80.9,7.333333333333332
Dampierre-en-Yvelines 78720,78720,78,48.7050057,1.9856176,7.267438903926707,0.2861111111111111,6.307395936954704,37.19391098002857,0,1,0,0,891.4,87.91999999999999,11.499999999999998,368.0,421.2,77.41999999999999,7.8
Dampmart 77400,77400,77,48.8852184,2.7355279,2.4746206664839634,0.17333333333333334,2.1906524420775346,36.26625046036281,1,0,0,0,6713.714285714285,1273.7714285714285,4.714285714285714,2778.8571428571427,3009.4285714285716,77.57142857142857,9.785714285714286
Dannemois 91490,91490,91,48.4538873,2.4778402,17.345017187432443,0.37,7.789200637873491,49.311718441012914,0,1,0,0,1612.8,114.17999999999999,13.62,690.0,808.2,77.52,7.8
Deuil-la-Barre 95170 (Barre - Ormesson),95170,95,48.9662338,2.3167211,0.21060604481843104,0.04027777777777778,0.014491700152865328,23.179934908149836,1,0,0,0,22306.0,5932.4,3.8,9345.0,10353.0,78.2,9.6
Deuil-la-Barre 95170 (Centre-ville - Côte),95170,95,48.9767,2.3272,1.1845731738048895,0.06833333333333333,0.8320989998894733,23.90999086672357,1,0,0,0,22306.0,5932.4,3.8,9345.0,10353.0,78.2,9.6
Deuil-la-Barre 95170 (Deuil - Montmagny),95170,95,48.97593,2.3382926,1.7117890676017495,0.10277777777777777,0.021865079249713756,23.839088103632317,1,0,0,0,22306.0,5932.4,3.8,9345.0,10353.0,78.2,9.6
Deuil-la-Barre 95170 (Galathée),95170,95,48.965160299999994,2.3295996,0.8588411085905794,0.05527777777777778,0.7727010964882495,23.04823225037058,1,0,0,1,22306.0,5932.4,3.8,9345.0,10353.0,78.2,9.6
Deuil-la-Barre 95170 (Lac Marchais - Blancport),95170,95,48.9767,2.3272,1.1845731738048895,0.06833333333333333,0.8320989998894733,23.90999086672357,1,0,0,0,22306.0,5932.4,3.8,9345.0,10353.0,78.2,9.6
Deuil-la-Barre 95170 (Mortefontaines),95170,95,48.9743261,2.3208207,0.754920333274288,0.04472222222222222,0.9421978005975159,23.753773200109762,1,0,0,0,22306.0,5932.4,3.8,9345.0,10353.0,78.2,9.6
Dhuisy 77440,77440,77,49.0364234,3.140802,20.350542763666947,0.4777777777777778,8.13935658408316,65.92169365566653,1,0,0,0,908.2307692307693,120.54615384615384,9.607692307692307,341.0769230769231,384.9230769230769,78.73846153846155,11.615384615384615
Diant 77940,77940,77,48.2822091,2.9925718,11.221948410937337,0.24972222222222223,8.922069543207586,80.62993453833538,1,0,0,0,703.8888888888889,70.05555555555556,11.766666666666667,284.44444444444446,346.0,76.71111111111111,9.488888888888887
Domont 95330 (Gambetta - Golf - Forêt Domaniale Montmorency),95330,95,49.0278,2.3264,6.366343755433436,0.21972222222222224,0.9552701672269263,28.069840687092302,1,0,0,0,15514.0,1862.4,8.3,6220.0,6598.0,78.5,10.0
Domont 95330 (Les Tournesols),95330,95,49.0278,2.3264,6.366343755433436,0.21972222222222224,0.9552701672269263,28.069840687092302,1,0,0,0,15514.0,1862.4,8.3,6220.0,6598.0,78.5,10.0
Domont 95330 (Ombreval),95330,95,49.0278,2.3264,6.366343755433436,0.21972222222222224,0.9552701672269263,28.069840687092302,1,0,0,0,15514.0,1862.4,8.3,6220.0,6598.0,78.5,10.0
Donnemarie-Dontilly 77520,77520,77,48.4793547,3.1288116,15.640153171000133,0.38222222222222224,9.741645343132708,73.25671571935177,1,0,0,0,613.5,60.83333333333334,8.766666666666666,244.08333333333334,289.0833333333333,77.59166666666667,9.875
Doue 77510,77510,77,48.8655066,3.1640136,8.110351270687207,0.17666666666666667,8.826893301135096,64.01411960396976,1,0,0,0,860.6,69.32,13.62,339.3,417.2,79.05999999999999,10.85
Dourdan 91410,91410,91,48.5288442,2.0153689,14.963914097718733,0.36444444444444446,0.7300127693695428,47.74394098079623,0,1,0,0,1669.6363636363637,90.48181818181818,12.509090909090911,676.0,749.2727272727273,78.15454545454546,9.454545454545455
Drancy 93700 (Avenir Parisien),93700,93,48.9231214,2.4192195,1.8553957347840397,0.20083333333333334,0.5897547041561552,21.58702306257531,0,0,0,1,71318.0,9190.5,7.8,27760.0,29897.0,73.2,20.3
Drancy 93700 (L'Economie),93700,93,48.9327015,2.4545327,1.008869154130498,0.09055555555555556,0.0171302514928292,23.162548625871715,0,1,0,0,71318.0,9190.5,7.8,27760.0,29897.0,73.2,20.3
Drancy 93700 (La Mare),93700,93,48.9154666,2.4521616,0.614349200417409,0.05361111111111111,0.8662139813226831,22.290135260050025,0,0,0,1,71318.0,9190.5,7.8,27760.0,29897.0,73.2,20.3
Drancy 93700 (La Muette),93700,93,48.9204098,2.4581373,1.0136332179701437,0.08055555555555556,1.3895955674701497,22.713643753160465,0,1,0,0,71318.0,9190.5,7.8,27760.0,29897.0,73.2,20.3
Drancy 93700 (Le Petit Drancy),93700,93,48.9184685,2.4367719,0.6667563033783762,0.034166666666666665,0.6315747794715473,21.894834131561307,0,0,0,1,71318.0,9190.5,7.8,27760.0,29897.0,73.2,20.3
Drancy 93700 (Les Oiseaux),93700,93,48.9250273,2.4547201000000003,0.839528991923312,0.08722222222222223,0.8539666871731737,22.798420179908778,0,1,0,0,71318.0,9190.5,7.8,27760.0,29897.0,73.2,20.3
Drancy 93700 (Paris Campagne),93700,93,48.9261033,2.4313656000000003,1.0767100571478276,0.09861111111111111,0.6577779794204368,22.085614103573988,0,1,0,1,71318.0,9190.5,7.8,27760.0,29897.0,73.2,20.3
Drancy 93700 (Village Parisien),93700,93,48.91723010000001,2.4678522000000003,1.5050421816188153,0.13361111111111112,1.2883092092902606,22.943019522933795,0,0,0,1,71318.0,9190.5,7.8,27760.0,29897.0,73.2,20.3
Draveil 91210,91210,91,48.6851514,2.4083576,0.13764828845446614,0.01361111111111111,1.8811381806259528,28.17387072252959,0,1,0,0,28833.0,1830.7,15.8,11444.0,12285.0,75.6,11.9
Draveil 91210 (Centre-ville),91210,91,48.686193,2.4109965,0.2864378073356251,0.03111111111111111,2.092245782207714,28.133919157122996,0,1,0,0,28833.0,1830.7,15.8,11444.0,12285.0,75.6,11.9
Draveil 91210 (Champrosay),91210,91,48.66262860000001,2.4177519,2.722400257675808,0.11527777777777778,0.44742207107008725,30.044502496308173,0,1,0,0,28833.0,1830.7,15.8,11444.0,12285.0,75.6,11.9
Draveil 91210 (La Villa),91210,91,48.6851514,2.4083576,0.13764828845446614,0.01361111111111111,1.8811381806259528,28.17387072252959,0,1,0,0,28833.0,1830.7,15.8,11444.0,12285.0,75.6,11.9
Draveil 91210 (Mainville),91210,91,48.6828465,2.433245,1.9575341979849081,0.11277777777777778,2.968445674667985,28.762302866921765,0,1,0,0,28833.0,1830.7,15.8,11444.0,12285.0,75.6,11.9
Dugny 93440,93440,93,48.95381550000001,2.414733,2.5161950591674414,0.17055555555555554,1.7458584690624663,23.22462888474578,0,0,0,1,10732.0,2758.9,3.9,3998.0,4280.0,72.8,21.2
